[{"title":"Musée Départemental des Pays De l'Ain","description":"Musée Départemental des Pays De l'Ain","coordinates":{"lat":46.1965539,"lng":5.2191944},"address":"34, rue du Général Delestraint, 01000, BOURG-EN-BRESSE","url":"www.musees.ain.fr","details":"Phone: undefined / opening days:  / closing days: "},{"title":"Musée du Brou","description":"Musée du Brou","coordinates":{"lat":46.197959,"lng":5.236224},"address":"Monastère Royal de Brou\r\n63, Boulevard de Brou, 01000, BOURG-EN-BRESSE","url":"www.bourgenbresse.fr/Vie-municipale/","details":"Phone: undefined / opening days: Ouvert tous les jours du 1er octobre au 31 mars de 9h à 12h et de 14h à 17h, du 1er avril au 30 juin de 9h à 12h30 et de 14h à 18h, du 1er juillet au 30 septembre de 9h à 18h / closing days: 1er janvier, 1er mai, 1er et 11 novembre, 25 décembre"},{"title":"Musée de la Société d'Histoire et d'Archéologie","description":"Musée de la Société d'Histoire et d'Archéologie","coordinates":{"lat":45.78275600000001,"lng":5.458796299999999},"address":"Mairie, 01470, BRIORD","url":"","details":"Phone: undefined / opening days: Ouvert le jeudi de 14h à 18h de mai à septembre / closing days: "},{"title":"Musée Archéologique","description":"Musée Archéologique","coordinates":{"lat":46.2201352,"lng":5.554840599999999},"address":"Place de l'Eglise, 01580, IZERNORE","url":"www.archeologie-izernore.com","details":"Phone: undefined / opening days: Ouvert de septembre à mai du mercredi au vendredi de 9h à 12h et de 14h à 17h, et de juin à août du mardi au samedi de 9h à 12h et de 14h à 18h / closing days: Jours fériés, et fermeture exceptionnelle"},{"title":"Musée du Bugey-Valmorey","description":"Musée du Bugey-Valmorey","coordinates":{"lat":45.9309199,"lng":5.726847999999999},"address":"Maison Renaissance, 01260, LOCHIEU","url":"www.musees.ain.fr","details":"Phone: undefined / opening days: Ouvert du 1er avril au 1er novembre jeudi au lundi de 10h à 12h30 et de 13h30 à 18h / closing days: 2 novembre à mars pour les individuels"},{"title":"Musée de la Résistance et de la Déportation de l'Ain","description":"Musée de la Résistance et de la Déportation de l'Ain","coordinates":{"lat":46.152401,"lng":5.6082736},"address":"3, Montée de l'Abbaye, 01130, NANTUA","url":"www.musees.ain.fr","details":"Phone: undefined / opening days: Ouvert du 1er mars au 15 novembre, du mercredi au lundi de 10h à 12h30 et de 13h30 à 18h00 / closing days: 1er mai,  lundi de la Pentecôte, 1er novembre"},{"title":"Musée du Peigne et de la Plasturgie","description":"Musée du Peigne et de la Plasturgie","coordinates":{"lat":46.2608933,"lng":5.6466808},"address":"Centre Culturel Aragon\r\nPlace Georges Pompidou, 01100, OYONNAX","url":"Site de la ville : www.ville-oyonnax.fr/culture/museepeigneetplast.php","details":"Phone: undefined / opening days: Ouvert d'octobre à juin du mardi au samedi de 14h à 18h et le premier dimanche de chaque mois de 14h à 18h / closing days: Janvier et jours fériés"},{"title":"Musée du Vieux Pérouges","description":"Musée du Vieux Pérouges","coordinates":{"lat":45.9034143,"lng":5.178854600000001},"address":"Rue des Princes\r\nCité médiévale, 01800, PEROUGES","url":"www.ostelleriedeperouges.com","details":"Phone: undefined / opening days: Ouvert de 10h à 12h et de 14h à 18h tous les jours de mai à septembre et le week-end de mars à octobre / closing days: Novembre à Avril"},{"title":"Musée Chintreuil","description":"Musée Chintreuil","coordinates":{"lat":46.4304571,"lng":4.9379593},"address":"Hôtel de Ville\r\n66, Rue Maréchal de Lattre de Tassigny, 01190, PONT-DE-VAUX","url":"www.musee-chintreuil.com","details":"Phone: undefined / opening days: Ouvert d'avril à novembre du mercredi au lundi de 14h à 18h. Sur rendez-vous pour les groupes / closing days: undefined"},{"title":"Musée de la Bresse - Domaine des Planons","description":"Musée de la Bresse - Domaine des Planons","coordinates":{"lat":46.2826186,"lng":4.984171},"address":"Domaine des Planons\r\nHameau de la Mulatière, 01380, SAINT-CYR-SUR-MENTHON","url":"www.musees.ain.fr","details":"Phone: undefined / opening days: Ouvert du 1er mars au 15 novembre du mercredi au lundi de 10h à 18h / closing days: "},{"title":"Musée Louis Jourdan","description":"Musée Louis Jourdan","coordinates":{"lat":46.0994418,"lng":5.1291669},"address":"Mairie\r\nPlace Louis Jourdan, 01240, SAINT-PAUL-DE-VARAX","url":"","details":"Phone: undefined / opening days: Ouvert en mai, juin et septembre les samedis et dimanches de 14h30 à 17h30, et en juillet-août les vendredis, samedis et dimanches de 14h30 à 17h30 / closing days: Mi septembre à mi mai"},{"title":"Musée du Bois","description":"Musée du Bois","coordinates":{"lat":45.958963,"lng":5.8312056},"address":"1, Place de la République, 01420, SEYSSEL","url":"","details":"Phone: undefined / opening days: Musée fermé pour rénovation\r\nOuvert lors des JEP de 10h à 12h et de 14h à 18h / closing days: "},{"title":"Musée Départemental du Revermont","description":"Musée Départemental du Revermont","coordinates":{"lat":46.300355,"lng":5.388885999999999},"address":"Cuisiat, 01370, TREFFORT-CUISIAT","url":"www.treffort-cuisiat.com/musee.htm","details":"Phone: undefined / opening days: Ouvert du 1er avril au 1er novembre de 10h à 13h et de 14h à 18h / closing days: "},{"title":"Musée de la Dombes","description":"Musée de la Dombes","coordinates":{"lat":45.99963,"lng":5.021649},"address":"Maison de la Dombes, 01330, VILLARS DE LA DOMBES","url":"http://www.museedeladombes.fr/","details":"Phone: undefined / opening days:  / closing days: "},{"title":"Musée Rural de la Sologne Bourbonnaise","description":"Musée Rural de la Sologne Bourbonnaise","coordinates":{"lat":46.60208290000001,"lng":3.6728256},"address":"2, Rue de la Poste, 03230, BEAULON","url":"","details":"Phone: undefined / opening days:  / closing days: "},{"title":"Musée Charles-Louis Philippe","description":"Musée Charles-Louis Philippe","coordinates":{"lat":46.617864,"lng":2.8232446},"address":"5, Rue Charles-Louis Philippe, 03350, CERILLY","url":"www.mairie-cerilly.fr","details":"Phone: undefined / opening days: Ouvert du 1er mai au 30 juin et du 1er septembre au 31 octobre de 15h à 18h, samedi, dimanche et jours fériés  de 15h à 18h, en juillet-août tous les jours de 15h à 18h. / closing days: "},{"title":"Musée Municipal de Gannat","description":"Musée Municipal de Gannat","coordinates":{"lat":46.1015779,"lng":3.1965049},"address":"Place Rantian, 03800, GANNAT","url":"http://tourisme-bassin-gannat.com","details":"Phone: undefined / opening days: Ouvert du 2ème samedi d'avril au dernier dimanche d'octobre du mardi au dimanche de 14h à 18h / closing days: "},{"title":"Musée des Musiques Populaires - MuPop","description":"Musée des Musiques Populaires - MuPop","coordinates":{"lat":46.3409248,"lng":2.6054845},"address":"3, Rue Notre Dame, 03100, MONTLUCON","url":"www.mupop.fr","details":"Phone: undefined / opening days: Ouvert du mardi au dimanche du 1er juin au 31 août de 10h à 19h et du 1er septembre au 31 mai de 14h à 18h / closing days: Janvier, 1er mai, 25 décembre"},{"title":"Centre National du Costume de Scène et de la Scénographie","description":"Centre National du Costume de Scène et de la Scénographie","coordinates":{"lat":46.561356,"lng":3.318633},"address":"Quartier Villars\r\nRoute de montilly, 03000, MOULINS","url":"www.cncs.fr","details":"Phone: undefined / opening days: Ouvert tous les jours de 10h à 18h, en juillet-août de 10h à 18h30 / closing days: 25 décembre, 1erjanvier, 1er mai et lors du montage des expositions"},{"title":"Musée Anne de Beaujeu","description":"Musée Anne de Beaujeu","coordinates":{"lat":46.56729989999999,"lng":3.3305049},"address":"5, Place du Colonel Laussedat, 03000, MOULINS","url":"www.mab.allier.fr","details":"Phone: undefined / opening days: Ouvert de septembre à juin du mardi au samedi de 10h à 12h et de 14h à 18h, dimanches et jours fériés de 14h à 18h. En juillet-août du lundi au samedi de 10h à 12h30 et de 14h à 18h30, dimanches et jours fériés de 14h à 18h30 / closing days: 1er janvier, 1er mai, 25 décembre"},{"title":"Musée Rieckotter","description":"Musée Rieckotter","coordinates":{"lat":46.2886608,"lng":2.6597407},"address":"Hôtel de Ville\r\nBoulevard des Arène - B.P. 10, 03310, NERIS-LES-BAINS","url":"www.ville-neris-les-bains.fr","details":"Phone: undefined / opening days: Ouvert d'avril à octobre du mercredi au samedi de 14h30 à 18h, de juin à septembre le dimanche de 14h30 à 17h30, visite guidée le jeudi et le samedi à 16h / closing days: "},{"title":"Musée Municipal de Souvigny","description":"Musée Municipal de Souvigny","coordinates":{"lat":46.5341797,"lng":3.1933324},"address":"Place Aristide Briand, 03210, SOUVIGNY","url":"site de la ville www.ville-souvigny.com","details":"Phone: undefined / opening days: Ouvert du 1er avril au 20 novembre du mercredi au lundi de 9h à 12h et de 14h à 18h, de juin à septembre tous les jours de 9h à 12h et de 14h à 18h, en juillet-août de 9h à 12h et de 13h à 18h / closing days: 1er mai, 25 décembre, 1er janvier - Mars"},{"title":"Musée des Arts D'Afrique et D'Asie","description":"Musée des Arts D'Afrique et D'Asie","coordinates":{"lat":46.12821599999999,"lng":3.4198734},"address":"11, Rue Mounin, 03200, VICHY","url":"www.musee-aaa.com","details":"Phone: undefined / opening days: Ouvert du mardi au dimanche de 14h à 18 h de début mai à fin octobre / closing days: "},{"title":"MuséAL - Musée Archéologique d'Alba","description":"MuséAL - Musée Archéologique d'Alba","coordinates":{"lat":44.5610059,"lng":4.600160199999999},"address":"Route départementale 107, 07400, ALBA-LA-ROMAINE","url":"http://museal.ardeche.fr/","details":"Phone: undefined / opening days: Ouvert de février à juin et de septembre à novembre le lundi, mercredi au vendredi de 10h à 12h30 et de 14h30 à 18h, le samedi et dimanche de 14h30 à 18h, en juillet-août du lundi au vendredi de 10h à 13h et de 14h à 18h30, le dimanche de 14h30 à 18h. Pet / closing days: Janvier et décembre - 1er janvier, 1er mai, 25 décembre"},{"title":"Musée Vivarois César Filhol","description":"Musée Vivarois César Filhol","coordinates":{"lat":45.2407821,"lng":4.6679745},"address":"15, Rue Jean-Baptiste Béchetoille, 07100, ANNONAY","url":"www.cc-bassin-annonay.fr/-Le-Musee-Cesar-Filhol-.html","details":"Phone: undefined / opening days: Visite sur rendez-vous en raison de la fermeture pour récolement / closing days: Jours fériés"},{"title":"Musée des Vans","description":"Musée des Vans","coordinates":{"lat":44.4042019,"lng":4.1341464},"address":"4, Rue du Couvent, 07140, LES VANS","url":"http://www.les-vans.fr/musee/","details":"Phone: undefined / opening days: Ouvert en juillet et en août du lundi au vendredi de 10h à 13h et de 16h à 19h, de septembre à juin le mercredi de 10h à 13h et de 14h à 17h et le samedi de 10h à 13h. Pour les groupes et scolaires les mardi, jeudi et vendredi de 9h à 12h et de 14h à 17h / closing days: Durant les vacances de la Toussaint, de Noël et d’hiver"},{"title":"Cité de Préhistoire","description":"Cité de Préhistoire","coordinates":{"lat":44.3189123,"lng":4.4128484},"address":"Orgnac Grand Site de France, 07150, ORGNAC-L'AVEN","url":"www.orgnac.com","details":"Phone: undefined / opening days: Ouverture de la grotte et de la cité de la préhistoire du 1er février au 15 novembre et pour les vacances scolaires de Noël.\r\nAccueil : février, mars de 10h à 12h30 et de 14h à 18h, d'avril à juin et septembre de 9h30  à 19h, en juillet-août de 9h30 à 19h / closing days: Décembre, janvier"},{"title":"Musée de la terre ardéchoise","description":"Musée de la terre ardéchoise","coordinates":{"lat":44.7358124,"lng":4.5958283},"address":"2, Place des Récollets, 07000, PRIVAS","url":"","details":"Phone: undefined / opening days:  / closing days: "},{"title":"Musée de la Batellerie du Rhône","description":"Musée de la Batellerie du Rhône","coordinates":{"lat":45.3138987,"lng":4.7699849},"address":"154, rue Auguste Vincent, 07340, SERRIERES","url":"www.serrieres-ardeche.fr","details":"Phone: undefined / opening days: Ouvert du 1er juin jusqu'aux JEP du mercredi au lundi de 10h à 12h et de 14h à 18h / closing days: "},{"title":"Musée et Site Archéologiques","description":"Musée et Site Archéologiques","coordinates":{"lat":44.8879457,"lng":4.8509064},"address":"Place de la Déesse Soïo, 07130, SOYONS","url":"www.rhonecrussol.fr","details":"Phone: undefined / opening days: Ouvert du 1er avril au 31 octobre du mercredi au dimanche de 14h à 18h, en juillet-août tous les jours de 10h à 19h.\r\nVisites exceptionnelles durant les vacances de février, Toussaint et Noël / closing days: Décembre et janvier"},{"title":"Musée du Rhône","description":"Musée du Rhône","coordinates":{"lat":45.0680241,"lng":4.8316214},"address":"14, Place Auguste Faure, 07300, TOURNON-SUR-RHÔNE","url":"www.chateaumusee-tournon.com","details":"Phone: undefined / opening days: Ouvert du 20 mars au 23 décembre tous les jours de 14h à 18h, en juillet-août tous les jours de 10h à 19h, et de novembre au 23 décembre, du jeudi au mardi de 14h à 17h30 / closing days: du 21 décembre au 19 mars, 1er mai"},{"title":"Musée d'Art et d'Archéologie","description":"Musée d'Art et d'Archéologie","coordinates":{"lat":44.9252952,"lng":2.4423908},"address":"Centre Culturel Pierre Mendès France\r\n37, rue des Carmes, 15012, AURILLAC Cedex","url":"www.ville-aurillac.fr","details":"Phone: undefined / opening days: Ouvert de février à novembre du mardi au samedi de 10h à 12h et de 14h à 18h, le dimanche de 14h à 18h en juillet-août\r\nExpositions temporaires (Ecuries) du lundi au samedi de 13h30 à 18h30\r\nExpositions temporaires (Sellerie) du mardi au samedi de 14h à 1 / closing days: "},{"title":"Ecomusée de Margeride-Haute-Auvergne","description":"Ecomusée de Margeride-Haute-Auvergne","coordinates":{"lat":44.9996921,"lng":3.2255087},"address":"La Tour\r\nJardin de Saint-Martin, 15320, RUYNES-EN-MARGERIDE","url":"www.ecomuseedemargeride.fr","details":"Phone: undefined / opening days: Ouvert tous les jours en juin et septembre tous les jours de 14h à 18h et en juillet aôut tous les jours de 10h à 13h et de 15h à 19h / closing days: Décembre et janvier"},{"title":"Musée de la Haute Auvergne","description":"Musée de la Haute Auvergne","coordinates":{"lat":45.0331579,"lng":3.0952639},"address":"Palais épiscopal\r\n1, Place d'Armes, 15100, SAINT-FLOUR","url":"www.auvergne-centrefrance.com/geotouring/musees/detail/mus154.htm","details":"Phone: undefined / opening days: Ouvert de mai à fin octobre tous les jours de 10h à 12h et de 14h à 18h, de novembre à fin avril le lundi et du mercredi au samedi de 10h à 12h et de 14h à 17h / closing days: 1er mai, jours fériés, Entre Noël et jour de l'an"},{"title":"Musée d'art et d'histoire Alfred Douët","description":"Musée d'art et d'histoire Alfred Douët","coordinates":{"lat":45.0340351,"lng":3.0951166},"address":"Maison consulaire\r\n17, Place d'Armes, 15100, SAINT-FLOUR","url":"www.musee-douet.com","details":"Phone: undefined / opening days: Ouvert du 2 mai au 30 septembre tous les jours de 10h à 12h et de 14h à 18h, du 1er octobre au 30 avril le lundi et du mercredi au samedi de 10h à 12h et de 14h à 17h / closing days: 1er mai, jours fériés. Entre Noël et le jour de l'an"},{"title":"Musée d'Histoire et d'Archéologie","description":"Musée d'Histoire et d'Archéologie","coordinates":{"lat":44.7550058,"lng":5.3698055},"address":"11, Rue Camille-Buffardel, 26150, DIE","url":"www.museededie.org","details":"Phone: undefined / opening days: Ouvert du 15 avril au 15 juin du mardi au vendredi de 14h à 17h et du 15 juin au 15 septembre du mardi au samedi de 15h à 19h / closing days: Novembre à mars et jours fériés"},{"title":"Château de Grignan","description":"Château de Grignan","coordinates":{"lat":44.4187508,"lng":4.9090352},"address":"Le Château, 26230, GRIGNAN","url":"http://chateaux.ladrome.fr","details":"Phone: undefined / opening days: Ouvert tous les jours de 9h30 à 12h et de 14h à 18h et en juillet-août de 10h à 18h / closing days: 1er janvier, 25 décembre"},{"title":"Musée du Château des Adhémars","description":"Musée du Château des Adhémars","coordinates":{"lat":44.559933,"lng":4.754814},"address":"24 rue du château\r\nPlateau de Narbonne, 26200, MONTELIMAR","url":"http://www.chateaux-ladrome.fr/fr/chateau-des-adhemar-montelimar","details":"Phone: undefined / opening days: Ouvert de mai à octobre pour les visiteurs individuels / le reste de l'année ouverture réservée aux groupes <<< / closing days: "},{"title":"Musée d'Art Sacré","description":"Musée d'Art Sacré","coordinates":{"lat":45.0705514,"lng":5.051345899999999},"address":"Le Village, 26540, MOURS SAINT-EUSEBE","url":"www.musee-art-sacre.com","details":"Phone: undefined / opening days: Ouvert du 2 mai au 31 octobre de 14h30 à 18h30 du dimanche au vendredi. En dehors de ces périodes sur réservation pour les groupes de plus de 15 personnes / closing days: "},{"title":"Musée International de la Chaussure","description":"Musée International de la Chaussure","coordinates":{"lat":45.044574,"lng":5.055701},"address":"Portail Roger Vivier\r\nRue Bistour, 26100, ROMANS","url":"www.ville-romans.com","details":"Phone: undefined / opening days: Ouvert d'octobre à avril du mardi au samedi de 10h à 17h et de mai à septembre de 10h à 18h, et du lundi au samedi de 10h à 18h en juillet-août. Dimanche et certains jours fériés de 14h30 à 18h / closing days: 1er janvier, lundi de Pâques, lundi de Pentecôte, 1er mai, 1er novembre et 25 décembre et 15 jours suivants les vacances de Noêl"},{"title":"Musée d'Archéologie Tricastine","description":"Musée d'Archéologie Tricastine","coordinates":{"lat":44.3491464,"lng":4.7678877},"address":"Place Castellane, 26131, SAINT-PAUL-TROIS-CHATEAUX","url":"www.musat.fr","details":"Phone: undefined / opening days: Ouvert du mardi au samedi de 14h30 à 18h, le premier dimanche du mois de 14h30 à 18h / closing days: "},{"title":"Musée du site Préhistorique","description":"Musée du site Préhistorique","coordinates":{"lat":44.86519200000001,"lng":5.356173},"address":"La Hâle, 26420, VASSIEUX-EN-VERCORS","url":"www.prehistoire-vercors.fr","details":"Phone: undefined / opening days: Ouvert en avril tous le sjours de 10h à 12h30 et de 14h à 17h, en mai et juin tous les jours de 10h à 12h30 et de 14h à 18h, en jullet et août tous les jours de 10h à 18h, en septembre tous les jours de 10h à 12h30 et de 14h à 17h, en octobre les week-end / closing days: 1er janvier, 25 décembre et de la fin des vacances de la Toussaint aux vacances de Noël"},{"title":"Musée de Paléontologie","description":"Musée de Paléontologie","coordinates":{"lat":45.15585129999999,"lng":3.4371649},"address":"Place de l'église, 43380, CHILHAC","url":"www.museechilhac.com","details":"Phone: undefined / opening days: Ouvert (Pâqes à la Toussaint) avril à juin et de septembre à Toussaint le dimanche et jours fériés de 14h à 18h, et en juillet-août tous les jours de 10h à 12h et de 15h à 19h / closing days: "},{"title":"Musée des Arts et Traditions Populaires de Haute Loire","description":"Musée des Arts et Traditions Populaires de Haute Loire","coordinates":{"lat":45.263104,"lng":3.454036},"address":", 43100, LAVAUDIEU","url":"Site des amis de Lavaudieu - www.abbayedelavaudieu.fr","details":"Phone: undefined / opening days: Ouvert du 26 mars au 30 juin et du 5 septembre au 13 novembre tous les jours, et du 1er juillet au 4 septembre tous les jours / closing days: Décembre à mars"},{"title":"Musée Crozatier","description":"Musée Crozatier","coordinates":{"lat":45.0385283,"lng":3.883152},"address":"Jardin Henri Vinay, 43000, LE PUY-EN-VELAY","url":"http://www.lepuyenvelay.fr/culture-et-patrimoine/musee-n15.html","details":"Phone: undefined / opening days: Ouvert de juin à septembre de 10h à 13h et de 14h à 19h et d'octobre à novembre de 10h à 12h et de 14h à 16h / closing days: Novembre à mai"},{"title":"Musée des Manufactures de Dentelles","description":"Musée des Manufactures de Dentelles","coordinates":{"lat":45.2025262,"lng":4.034267799999999},"address":"14, avenue de la Gare, 43130, RETOURNAC","url":"www.ville-retournac.fr/musee","details":"Phone: undefined / opening days: Ouvert tous les jours de 14h à 18h / et de 14h à 19h en juillet et août.\r\n. / closing days: Du 16 décembre au 14 mars et le 1er mai"},{"title":"Musée de la Ferblanterie","description":"Musée de la Ferblanterie","coordinates":{"lat":45.068254,"lng":3.549557},"address":", 43300, SAINT ARCONS D'ALLIER","url":"","details":"Phone: undefined / opening days:  / closing days: "},{"title":"Musée-château d'Annecy","description":"Musée-château d'Annecy","coordinates":{"lat":45.8974085,"lng":6.1259426},"address":"Place du Château, 74000, ANNECY","url":"http://musees.agglo-annecy.fr/Chateau-d-Annecy","details":"Phone: undefined / opening days: Ouvert tous les jours de 10h30 à 18h de juin à septembre et du mercredi au lundi de 10h à 12h et de 14h à 17h d'octobre à mai / closing days: 1er janvier, dimanche et lundi de Pâques, 1er mai, 1er & 11 novembre, 25 décembre"},{"title":"Musée Alpin","description":"Musée Alpin","coordinates":{"lat":45.9240181,"lng":6.8713498},"address":"89, Avenue Michel Croz, 74400, CHAMONIX","url":"www.cc-valleedechamonixmontblanc.fr","details":"Phone: undefined / opening days: Ouvert du mercredi au lundi de 14h à 18h, et pendant les vacances scolaires du mercredi au lundi de 10h à 12h et de 14h à 18h, et en juillet-août tous les jours de 10h à 13h et de 14h à 18h / closing days: 1er janvier, 1er mai, 25 décembre"},{"title":"Musée Léon Marès","description":"Musée Léon Marès","coordinates":{"lat":45.8987136,"lng":6.039066399999999},"address":"Château de Montrottier\r\n60, Allée du Château, 74330, LOVAGNY","url":"www.chateaudemontrottier.com ou www.academie-florimontane.fr","details":"Phone: undefined / opening days: Ouvert du 15 mars au 15 octobre de 9h30 à 12h et de 14h à 18h / closing days: Du 15 octobre au 15 mars"},{"title":"Notre histoire, Musée de Rumilly","description":"Notre histoire, Musée de Rumilly","coordinates":{"lat":45.8619515,"lng":5.9480808},"address":"5, place de la manufacture, 74150, RUMILLY","url":"http://www.mairie-rumilly74.fr/culture_patrimoine/notre_histoire_musee_de_rumilly","details":"Phone: undefined / opening days: Ouvert du mercredi au samedi de 14h30 à 17h30 / closing days: Août, du 21 au 24 décembre et jours fériés"},{"title":"Musée des Vallées de Thônes","description":"Musée des Vallées de Thônes","coordinates":{"lat":45.8816384,"lng":6.3241295},"address":"2, Rue Blanche, 74230, THONES","url":"","details":"Phone: undefined / opening days: Ouvert le lundi de 14h30 à 17h30, le mardi de 9h à 12h, le mercredi 9h à 12h et de 13h30 à 17h30, jeudi et vendredi de 9h à 12h et de 14h30 à 17h30, le samedi de 9h30 à 12h et de 14h30 à 17h30, / closing days: "},{"title":"Musée du Chablais","description":"Musée du Chablais","coordinates":{"lat":46.3736073,"lng":6.478480999999999},"address":"Château de Sonnaz\r\n2, Rue Michaud, 74200, THONON-LES-BAINS","url":"Site de la ville","details":"Phone: undefined / opening days: Ouvert du 25 mars au 30  juin de 14h30 à 18h, en juillet août tous les jours de 10h à 12h et de 15h à 18h30, de septembre au 13 novembre tous le sjours de 14h30 à 18h / closing days: Jours fériés"},{"title":"Musée Jadis Allevard","description":"Musée Jadis Allevard","coordinates":{"lat":45.392398,"lng":6.0764064},"address":"Parc des Forges, 38580, ALLEVARD-LES-BAINS","url":"https://museedallevard.wordpress.com/","details":"Phone: undefined / opening days: Ouvert du lundi au samedi de 14h à 18h du 23 mai au 15 octobre et en hiver sur réservation pour les groupes de plus de 10 personnes / closing days: Jours fériés"},{"title":"Musée d'Huez et de l'Oisans","description":"Musée d'Huez et de l'Oisans","coordinates":{"lat":45.0898487,"lng":6.0693641},"address":"Espace Congrès Palais des Sports\r\nAvenue de Brandes, 38750, ALPE D'HUEZ","url":"www.alpedhuez-mairie.fr/47-musee.html","details":"Phone: undefined / opening days: Ouvert du lundi au samedi de 10h à 12h et de 14h à 19h de décembre à avril et en juillet-août et le premier dimanche de chaque mois / closing days: Jours fériés"},{"title":"Musée Gallo-Romain","description":"Musée Gallo-Romain","coordinates":{"lat":45.58790519999999,"lng":5.6064501},"address":"43, Place du Musée, 38490, AOSTE","url":" www.musee-aoste.fr","details":"Phone: undefined / opening days: Ouvert lundi au vendredi de 13h à 17h, ouvert le samedi pour les groupes sur réservation uniquement / closing days: Jours fériés, et pendant les vacances de Noël"},{"title":"Musée - Parc Archéologique du Lac de Paladru","description":"Musée - Parc Archéologique du Lac de Paladru","coordinates":{"lat":45.451742,"lng":5.5300116},"address":"15, Place de l'Eglise, 38850, CHARAVINES","url":"www.museelacdepaladru.fr","details":"Phone: undefined / opening days: Ouvert de mai à septembre tous les jours de 14h à 18h et d'octobre à avril le dimanche de 14h à 17h et tous les jours pendant les vacances scolaires de la zone A de 14h à 17h / closing days: 1er janvier, 1er mai, 25 decembre"},{"title":"Musée Géo-Charles","description":"Musée Géo-Charles","coordinates":{"lat":45.14961,"lng":5.699369},"address":"1, Rue Géo-Charles, 38130, ECHIROLLES","url":"www.ville-echirolles.fr/sortir/geocharles/geocharles.html","details":"Phone: undefined / opening days: Ouvert le lundi et du mercredi au vendredi de 14h à 18h, samedi, dimanche de 14h à 19h / closing days: Jours fériés"},{"title":"Musée de la Résistance de la Déportation de l'Isère","description":"Musée de la Résistance de la Déportation de l'Isère","coordinates":{"lat":45.1900646,"lng":5.7352116},"address":"14, rue Hébert, 38000, GRENOBLE","url":"www.resistance-en-isere.fr","details":"Phone: undefined / opening days: Ouvert du 1er septembre au 30 juin du lundi, mercredi au vendredi de 9h à 18h, mardi de 13h30 à 18h, samedi et dimanche de 10h à 18h, en juillet-août de 10h à 19h, mardi de 13h30 à 19h / closing days: 1er janvier, 1er mai, 25 décembre"},{"title":"Musée Stendhal","description":"Musée Stendhal","coordinates":{"lat":45.191622,"lng":5.7280666},"address":"1, Rue Hector Berlioz, 38000, GRENOBLE","url":"Site du patrimoine de l'Isère - www.patrimoine-en-isere.fr","details":"Phone: undefined / opening days: Ouvert le samedi de 10h à 12h et de 14h à 18h, premier dimanche du mois de 14h à 18h et durant les vacances scolaires du mardi au vendredi de 14h à 18h / closing days: "},{"title":"Muséum d'Histoire Naturelle de Grenoble","description":"Muséum d'Histoire Naturelle de Grenoble","coordinates":{"lat":45.1880247,"lng":5.7352186},"address":"1, Rue Dolomieu\r\nB.P. 3022, 38816, GRENOBLE Cedex 1","url":"http://www.grenoble.fr/639-museum-de-grenoble.htm","details":"Phone: undefined / opening days: Ouvert du mardi au vendredi de 9h15 à 12h et de 13h30 à 18h, samedi, dimanche et jours fériés de 14h à 18h / closing days: 1er janvier, 1er mai et 25 décembre"},{"title":"Musée Matheysin","description":"Musée Matheysin","coordinates":{"lat":44.9042196,"lng":5.7844355},"address":"Maison Caral\r\nRue du Colonel Escallon, 38350, LA MURE","url":"www.lamure.fr","details":"Phone: undefined / opening days: Ouvert du mercredi au lundi de 13h à 18h d'avril à juin et septembre, et en juillet-août de 10h à 12h et de 14h à 18h / closing days: 1er mai"},{"title":"Musée de la Grande Chartreuse","description":"Musée de la Grande Chartreuse","coordinates":{"lat":45.349988,"lng":5.790128},"address":"La Correrie, 38380, SAINT-PIERRE-DE-CHARTREUSE","url":"www.musee-grande-chartreuse.fr","details":"Phone: undefined / opening days: Ouvert de mai à septembre de 10h à 18h30, en avril, octobre et novembre de 13h30 à 18h / closing days: "},{"title":"Musée des Beaux-Arts et d'Archéologie","description":"Musée des Beaux-Arts et d'Archéologie","coordinates":{"lat":45.5239886,"lng":4.8748559},"address":"Place de Miremont, 38200, VIENNE","url":"www.musees-vienne.fr - Site du patrimoine de l'Isère","details":"Phone: undefined / opening days: Ouvert du mardi au dimanche de 9h30 à 13h et de 14h à 18h d'avril à octobre et du mardi au vendredi de 9h30 à 12h30 et de 14h à 17h, le samedi et dimanche de 13h30 à 17h30 de novembre à mars / closing days: 1er janvier, 1er mai, 1er et 11 novembre, 25 décembre"},{"title":"Musée Folklorique du Vieux Saint-Etienne","description":"Musée Folklorique du Vieux Saint-Etienne","coordinates":{"lat":45.435229,"lng":4.388338},"address":"Hôtel de Villeneuve\r\n13 bis, Rue Gambetta, 42000, SAINT-ETIENNE","url":"www.vieux-saint-etienne.com","details":"Phone: undefined / opening days: Ouvert du mardi au samedi de 14h30 à 18h / closing days: Jours fériés"},{"title":"Musée des Charmettes","description":"Musée des Charmettes","coordinates":{"lat":45.5530813,"lng":5.9301311},"address":"Maison de Jean-Jacques Rousseau\r\n890, Chemin des Charmettes, 73000, CHAMBERY","url":"www.chambery.fr/302-les-charmettes-maison-de-jean-jacques-rousseau.htm","details":"Phone: undefined / opening days: Ouvert du mardi au dimanche de 10h à 18h / closing days: Jours fériés"},{"title":"Musée Sarret de Grozon","description":"Musée Sarret de Grozon","coordinates":{"lat":46.9026146,"lng":5.7743414},"address":"Grande Rue, 39600, ARBOIS","url":"Site des musées de la région","details":"Phone: undefined / opening days: Ouvert du 1er juillet au 31 août de 15h à 18h30 du mercredi au lundi et du 1er au 16 septembre du jeudi au dimanche de 15h à 18h30 / closing days: "},{"title":"Musée des Beaux-Arts","description":"Musée des Beaux-Arts","coordinates":{"lat":47.0895708,"lng":5.4892148},"address":"85, rue des Arènes, 39100, DOLE","url":"Site de la ville ou site des musées de la région","details":"Phone: undefined / opening days: Ouvert mardi, jeudi, vendredi et samedi de 10h à 12h et de 14h à 18h, le mercredi de 10h à 12h et de 14h à 20h, dimanche de 14h à 18h / closing days: 1er mai, 1er novembre, du 24 décembre au 1er janvier"},{"title":"Musée d'Archéologie","description":"Musée d'Archéologie","coordinates":{"lat":46.67609900000001,"lng":5.5536484},"address":"7, Rue des Cordeliers, 39000, LONS-LE-SAUNIER","url":"Site de la ville","details":"Phone: undefined / opening days: Pas de salle d'expositions actuellement, mais maintien de conférences et animations toute l'année / closing days: "},{"title":"Musée des Beaux-Arts","description":"Musée des Beaux-Arts","coordinates":{"lat":46.67609900000001,"lng":5.5536484},"address":"Place Philibert de Châlon, 39000, LONS-LE-SAUNIER","url":"Site des musées de la région","details":"Phone: undefined / opening days: Ouvert du mardi au vendredi de 14h à 17h, samedi, dimanche et jours fériés de 14h à 18h / closing days: 1er mai - du 23 décembre inclus au 25 décembre inclus et du  du 30 décembre inclus au 1er janvier inclus"},{"title":"Viséum-Musée de la Lunette","description":"Viséum-Musée de la Lunette","coordinates":{"lat":46.52055259999999,"lng":6.0226267},"address":"Place Jean Jaurès, 39400, MOREZ HAUTS DE BIENNE","url":"www.musee-lunette.fr ou www.musees-franchecomte.com","details":"Phone: undefined / opening days: Ouvert du mercredi au lundi de 10h à 12h et de 14h à 18h, juillet-août de 10h à 18h / closing days: Jours fériés et du 1er au 25 décembre inclus"},{"title":"Musée de l'Abbaye/Donations Guy Bardone - René Genis","description":"Musée de l'Abbaye/Donations Guy Bardone - René Genis","coordinates":{"lat":46.3861321,"lng":5.8654467},"address":"3, Place de l'Abbaye, 39200, SAINT-CLAUDE","url":"www.museedelabbaye.fr","details":"Phone: undefined / opening days: Ouvert du mercredi au dimanche de 14h à 18h, vacances scolaires (hors juillet-août) tous les jours de 14h à 18h, du 1er juillet au 31 août tous les jours de 10h à 12h et de 14h à 18h / closing days: 1er janvier, 1er mai, 1er novembre, 25 décembre"},{"title":"Musée du Costume","description":"Musée du Costume","coordinates":{"lat":47.06715029999999,"lng":3.9341834},"address":"16-18, rue Saint Christophe, 58120, CHATEAU-CHINON","url":"www.cg58.fr/patrimoi/costu.htm","details":"Phone: undefined / opening days: Ouvert des vacances de février au 30 avril et du 1er octobre au 31 décembre de 10 à 12h et de 14 à 18h,du 1er mai au 30 juin et en septembre de 10 à 13h et de 14 à 18h - Juillet/août tlj de 10 à 13h et de 14 à 19h / closing days: Du 1er janvier jusqu'aux vacances de février, le 25 décembre"},{"title":"Musée du Septennat","description":"Musée du Septennat","coordinates":{"lat":47.0672665,"lng":3.9351306},"address":"6, rue du Château, 58120, CHATEAU-CHINON","url":"www.cg58.fr","details":"Phone: undefined / opening days: Ouvert des vacances de février au 30 avril et du 1er octobre au 31 décembre de 10 à 12h et de 14 à 18h,du 1er mai au 30 juin et en septembre de 10 à 13h et de 14 à 18h - Juillet/août tlj de 10 à 13h et de 14 à 19h / closing days: Du 1er janvier jusqu'aux vacances de février, le 25 décembre"},{"title":"Musée d'Art et d'Histoire Romain Rolland","description":"Musée d'Art et d'Histoire Romain Rolland","coordinates":{"lat":47.4602701,"lng":3.5206189},"address":"13, Avenue de la République, 58500, CLAMECY","url":"www.musees-bourgogne.org","details":"Phone: undefined / opening days: Ouvert de 10h à 12h et de 14h à 18h, le lundi et du mercredi au samedi, le dimanche de 14h à 18h du 1er mai au 30 septembre, et du mercredi au samedi du 1er octobre au 15 novembre et du 16 mars au 30 avril / closing days: du 15 novembre au 15 mars, 1er mai, 1er et 11 novembre, 25 décembre"},{"title":"Musée de la Loire","description":"Musée de la Loire","coordinates":{"lat":47.4103544,"lng":2.9235252},"address":"Place de la Résistance, 58200, COSNE-SUR-LOIRE","url":"http://www.museedelaloire.fr","details":"Phone: undefined / opening days: Ouvert de mars à octobre le lundi et du mercredi au vendredi de 10h à 12h et de 14h à 18h, samedi, dimanche et jours fériés de 14h à 18h. De novembre à décembre le lundi et du mercredi au samedi de 10h à 12h et de 14h à 17h30, samedi, dimanche  et jours f / closing days: Janvier et février"},{"title":"Musée Municipal","description":"Musée Municipal","coordinates":{"lat":47.17871359999999,"lng":3.0156574},"address":"33, Rue des Chapelains, 58400, LA CHARITE-SUR-LOIRE","url":"Site de l'OTSI ou des musées de Bourgogne","details":"Phone: undefined / opening days: Ouvert de juin à septembre de 10h à 12h et de 15h à18h. Pendant les expositions du mercredi au dimanche de 10h à 12h et de 15h à 18h / closing days: Octobre à mai"},{"title":"Musée Archéologique du Nivernais (Porte du Croux)","description":"Musée Archéologique du Nivernais (Porte du Croux)","coordinates":{"lat":46.9868355,"lng":3.1539825},"address":"Société Nivernaise des Lettres et Sciences et Arts\r\nRue de la Porte du Croux, 58000, NEVERS","url":"Conseil général","details":"Phone: undefined / opening days: Ouvert uniquement lors des journées européennes du patrimoine / closing days: "},{"title":"Musée de la Faïence et des Beaux-Arts","description":"Musée de la Faïence et des Beaux-Arts","coordinates":{"lat":46.9866083,"lng":3.1548825},"address":"16, rue Saint-Genest, 58000, NEVERS","url":"www.musee-faience.nevers.fr","details":"Phone: undefined / opening days: Ouvert du mardi au dimanche de mai à septembre de 10h à 18h30 et  d'octobre à avril de 13h à 17h30 et les week-end de 14h à 18h / closing days: 25 décembre au 1er janvier, 1er mai"},{"title":"Musée Ernest Guédon","description":"Musée Ernest Guédon","coordinates":{"lat":47.286026,"lng":2.9496817},"address":"17, quai Jules-Pabiot, 58150, POUILLY-SUR-LOIRE","url":"","details":"Phone: undefined / opening days:  / closing days: "},{"title":"Musée du Grès de Puisaye","description":"Musée du Grès de Puisaye","coordinates":{"lat":47.5317005,"lng":3.0740141},"address":"Château de Saint-Amand, 58310, SAINT-AMAND-EN-PUISAYE","url":"www.cg58.fr - Site musées de Bourgogne","details":"Phone: undefined / opening days: Ouvert du 15 mars au 15 novembre du mercredi au lundi de 9h à 12h et de 14h à 17h et du 2 mai au 30 septembre de 9h à 12h et de 14h à 18h / closing days: De novembre à mars"},{"title":"Musée Auguste Grasset","description":"Musée Auguste Grasset","coordinates":{"lat":47.35864489999999,"lng":3.3886809},"address":"Place de la Mairie, 58210, VARZY","url":"www.cg58.fr ou www.musees-bourgogne.org","details":"Phone: undefined / opening days: Ouvert en avril et en octobre le samedi et dimanche de 13h30 à 18h30, de début mai à fin septembre du mercredi au lundi de 13h30 à 18h30 / closing days: Musée fermé de fin octobre à début avril"},{"title":"Musée Verger Tarin","description":"Musée Verger Tarin","coordinates":{"lat":46.94418,"lng":4.2999106},"address":"Rue des Sous-Chantres, 71400, AUTUN","url":"","details":"Phone: undefined / opening days:  / closing days: "},{"title":"Musée Lapidaire Saint-Nicolas","description":"Musée Lapidaire Saint-Nicolas","coordinates":{"lat":46.9553939,"lng":4.3002934},"address":"Rue Saint Nicolas, 71400, AUTUN","url":"","details":"Phone: undefined / opening days:  / closing days: "},{"title":"Musée Rolin","description":"Musée Rolin","coordinates":{"lat":46.945681,"lng":4.299354999999999},"address":"3, rue des Bancs, 71400, AUTUN","url":"www.autun.com ou Site des musées de Bourgogne","details":"Phone: undefined / opening days:  de mi-février à fin mars du lundi au samedi de 10h à 12h et de 14h à 17h, le dimanche de 14h à 17h, du 1er avril au 30 juin de 9h30 à 12h et de 13h30 à 18h, septembre de 9h30 à 12h et de 13h30 à 18h, juillet à septembre de 10h à 13h et de 14h à 18h, de j / closing days: 1er mai, 14 juillet, 1er et 11 novembre, du 15 décembre au 21 février inclus"},{"title":"Musée de la Mine","description":"Musée de la Mine","coordinates":{"lat":46.7013311,"lng":4.382645999999999},"address":"34, rue du Bois Clair, 71450, BLANZY","url":"www.ecomusee-creusot-montceau.fr Site des musées de Bourgogne et de l'écomusée","details":"Phone: undefined / opening days: d'avril à fin octobre les samedi, dimance et jours fériés de 14h à 19h30\r\nde juillet à fin août tous les jours sauf le mardi de 14h à 19h30 / closing days: "},{"title":"Musée Saint-Nazaire","description":"Musée Saint-Nazaire","coordinates":{"lat":46.6239268,"lng":3.7687866},"address":"Rue St Nazaire, 71140, BOURBON-LANCY","url":"Site des musées de Bourgogne ou www.bourbon-lancy.com/musees_fr_02_07_02.html","details":"Phone: undefined / opening days: Ouvert en juillet août de 15h à 18h - ouverture exceptionnelle lors de la nuit des musées et JEP et sur demande / closing days: "},{"title":"Musée Denon","description":"Musée Denon","coordinates":{"lat":46.7810157,"lng":4.8523629},"address":"Place de l'hotel de ville, 71100, CHALON-SUR-SAONE","url":"site des musées de Bourgogne","details":"Phone: undefined / opening days: Ouvert du mercredi au lundi de 9h30 à 12h et de 14h à 17h30 / closing days: Jours fériés"},{"title":"Musée Nicéphore Niepce","description":"Musée Nicéphore Niepce","coordinates":{"lat":46.78013,"lng":4.855881},"address":"28, Quai des Messageries, 71100, CHALON-SUR-SAONE","url":"www.museeniepce.com","details":"Phone: undefined / opening days: Ouvert de septembre à juin de 9h30 à 11h45 et de 14h à 17h45 et en juillet-août de 10h à 18h / closing days: 23 décembre au 2 janvier, 1er,  5, 8 et 16 mai, 14 juillet, 15 août, 11 novembre et 25 décembre"},{"title":"Musée René Davoine","description":"Musée René Davoine","coordinates":{"lat":46.43123079999999,"lng":4.273219},"address":"32, rue René Davoine, 71120, CHAROLLES","url":"www.institut-charolais.com (site de l'office du tourisme)","details":"Phone: undefined / opening days:  / closing days: "},{"title":"Musée d'Art et d'Archéologie","description":"Musée d'Art et d'Archéologie","coordinates":{"lat":46.4355752,"lng":4.6574908},"address":"Palais Jean de Bourbon\r\nParc Abbatial - B.P. 10022, 71250, CLUNY","url":"Site des musées de Bourgogne","details":"Phone: undefined / opening days: Ouvert d'octobre à mars de 9h30 à 17h, d'avril à juin et septembre de 9h30 à 18h en juillet août de 9h30 à 17h / closing days: 1er janvier, 1er mai, 1er et 11 novembre et 25 décembre"},{"title":"Musée de l'Homme et de l'Industrie - Ecomusée de la Communauté Le Creusot-Monceau-Les-Mines","description":"Musée de l'Homme et de l'Industrie - Ecomusée de la Communauté Le Creusot-Monceau-Les-Mines","coordinates":{"lat":46.8056078,"lng":4.424124},"address":"Château de la Verrerie\r\nB.P. 53, 71202, LE CREUSOT Cedex","url":"www.ecomusee-creusot-montceau.fr","details":"Phone: undefined / opening days: Ouvert en basse saison en semaine de 10h à 12h et de 14h à 16h45, week-end et jours fériés  de 14h à 16h. En juillet, août, d'avril à juin et septembre en semaine de 10h à 12h et de 14h à 18h, week-end et jours fériés de 14h à 18h / closing days: 1er mai, 1 et 11 novembre, 23 au 25 décembre et du 30 au 31 décembre"},{"title":"L'Atelier d'un Journal\" de Louhans - Musée Municipal","description":"L'Atelier d'un Journal\" de Louhans - Musée Municipal","coordinates":{"lat":46.6302478,"lng":5.2243685},"address":"29, Rue des Dodânes, 71500, LOUHANS","url":"www.ecomusee-de-la-bresse.com ou site des musées de Bourgogne","details":"Phone: undefined / opening days: Ouvert du 1er mars au 30 décembre, le lundi, jeudi, vendredi de 11 h à 18h ainsi que le samedi de 9h à 12h et de 14 h à 18h / closing days: Semaine de Noël et jour de l'an"},{"title":"Musée des Ursulines","description":"Musée des Ursulines","coordinates":{"lat":46.30721399999999,"lng":4.832859},"address":"5, rue des Ursulines, 71000, MACON","url":"http://www.macon.fr/Culture-sports-et-loisirs/Les-Musees-de-Macon","details":"Phone: undefined / opening days: Ouvert du mardi au samedi de 10 h à 12 h et de 14 h à 18 h, et le dimanche et autres jours fériés de 14h à 18h / closing days: 1er janvier, 1er mai, 14 juillet, 1er novembre, 25 décembre"},{"title":"Musée de la Tour du Moulin","description":"Musée de la Tour du Moulin","coordinates":{"lat":46.2745568,"lng":4.0432441},"address":"7-9, rue de la Tour, 71110, MARCIGNY","url":"www.tour-du-moulin.fr","details":"Phone: undefined / opening days: Ouvert du mercredi au lundi du 1er avril à mi-juin et du 21 septembre au 31 octobre de 14h à 18h , et de mi-juin à mi-septembre du mercredi au lundi 9h à 12h et de 14h à 18h / closing days: Fermeture annuelle du 1er novembre au 31 mars 2011"},{"title":"Musée Municipal","description":"Musée Municipal","coordinates":{"lat":46.4500681,"lng":4.121226099999999},"address":"Avenue Jean-Paul II, 71600, PARAY-LE-MONIAL","url":"","details":"Phone: undefined / opening days:  / closing days: "},{"title":"Musée Eucharistique du Hiéron","description":"Musée Eucharistique du Hiéron","coordinates":{"lat":46.45195349999999,"lng":4.123088},"address":"13, Rue de la Paix, 71600, PARAY-LE-MONIAL","url":"www.musee-hieron.fr","details":"Phone: undefined / opening days: Ouvert du 20 mars au premier dimanche de janvier, du mercredi au dimanche de 10h30 à 12h30 et de 14h à 18h et en juillet-août tous les jours de 10h30 à 12h30 et de 14h à 18h / closing days: 31 décembre au 21 mars"},{"title":"Maison du Blé et du Pain","description":"Maison du Blé et du Pain","coordinates":{"lat":46.8986848,"lng":5.0224629},"address":"2, Rue de l'Egalité, 71350, VERDUN-SUR-LE-DOUBS","url":"www.verdunsurledoubs.fr rubrique culture ou www.ecomusee-de-la-bresse.com","details":"Phone: undefined / opening days: Ouvert tous les jours de 14h à 18h / closing days: 1er mai, De mi-décembre  à fin janvier"},{"title":"Musée Frédéric Japy","description":"Musée Frédéric Japy","coordinates":{"lat":47.4850286,"lng":6.922594900000001},"address":"16, Rue Frédéric Japy, 90500, BEAUCOURT","url":"www.musees-des-techniques.org ou www.ville-beaucourt.fr","details":"Phone: undefined / opening days: Ouvert du 1er mercredi de mars au dernier dimanche avant Noël du mercredi au dimanche de 14h à 17h / closing days: 1er février au 1er mars - 1er mai, 1er novembre"},{"title":"Musée d'Art et d'Histoire","description":"Musée d'Art et d'Histoire","coordinates":{"lat":47.6365716,"lng":6.8647814},"address":"Château de Belfort\r\nB.P. 733, 90020, BELFORT cedex","url":"www.musees-franchecomte.com ou http://www.ville-belfort.fr/","details":"Phone: undefined / opening days: Ouvert du 1er octobre au 31 mars du mercredi au lundi de 9h à 12h et de 14h à 17h, du 1er avril au 31 juin et en septembre du mercredi au lundi de 9h à 12h et de 14h à 18h, du 1et juillet au 31 août tous les jours de 9h à 18h / closing days: le 1er novembre, 25 décembre, 1er janvier"},{"title":"Donation Maurice Jardot","description":"Donation Maurice Jardot","coordinates":{"lat":47.642526,"lng":6.8556561},"address":"Musée(s) de Belfort\r\nB.P. 20223, 90004, BELFORT Cedex","url":"www.musees-franchecomte.com","details":"Phone: undefined / opening days: Ouvert du 1er octobre au 31 mars du mercredi au lundi de 9h à 12h et de 14h à 17h, du 1er avril au 31 juin et en septembre du mercredi au lundi de 9h à 12h et de 14h à 18h, du 1et juillet au 31 août tous les jours de 9h à 18h / closing days: Le 1er novembre, le 25 décembre et le 1er janvier"},{"title":"Forge-Musée","description":"Forge-Musée","coordinates":{"lat":47.7225116,"lng":6.9208352},"address":"2, Rue de Lamadeleine, 90170, ETUEFFONT","url":"www.musees-des-techniques.org ou www.ccvosgesdusud.fr","details":"Phone: undefined / opening days: Ouvert du 1er avril au 30 septembre du mercredi au dimanche de 14h à 18h et en octobre du vendredi au dimanche de 14h à 18h / closing days: "},{"title":"Musée Leblanc-Duvernois","description":"Musée Leblanc-Duvernois","coordinates":{"lat":47.7950118,"lng":3.566455},"address":"9 bis, Rue d'Egleny, 89000, AUXERRE","url":"Site des musées de Bourgogne","details":"Phone: undefined / opening days: Ouvert du 1er avril au 30 septembre du mercredi au dimanche, de 14h à 18h / closing days: 1er et 8 mai, 1er et 11 novembre, 25 décembre au 1er janvier"},{"title":"Musée Municipal de Tonnerre","description":"Musée Municipal de Tonnerre","coordinates":{"lat":47.8550141,"lng":3.974871899999999},"address":"22, Rue Rougemont, 89700, TONNERRE","url":"","details":"Phone: undefined / opening days:  / closing days: "},{"title":"Musée Zervos - Maison Romain Rolland","description":"Musée Zervos - Maison Romain Rolland","coordinates":{"lat":47.4637405,"lng":3.7432801},"address":"Maison Romain-Rolland\r\nRue Saint-Etienne, 89450, VEZELAY","url":"www.musee-zervos.fr","details":"Phone: undefined / opening days: Ouvert du 15 mars au 15 novembre du mercredi au lundi  de 10h à 18h et tous les jours en  juillet-août / closing days: "},{"title":"Musée d'Art et d'Histoire du Puisaye","description":"Musée d'Art et d'Histoire du Puisaye","coordinates":{"lat":47.780684,"lng":3.208526},"address":"5, Rue Paul-Huillard, 89130, VILLIERS-SAINT-BENOIT","url":"https://mahdepuisaye.wordpress.com","details":"Phone: undefined / opening days: Ouvert du 15 mars au 30 avril et du 1er octobre au 15 novembre du mercredi au lundi de 9h à 12h et de 14h à 17h et du 2  mai au 30 septembre de 9h à 12h et de 14h à 18h / closing days: 1er mai, 1er et 11 novembre, 16 octobre au 14 mars 2009"},{"title":"Ecomusée d'Ouessant - Vivre sur une Ile","description":"Ecomusée d'Ouessant - Vivre sur une Ile","coordinates":{"lat":48.460038,"lng":-5.110543100000001},"address":"Le Niou Huella, 29242, OUESSANT","url":"www.pnr-armorique.fr","details":"Phone: undefined / opening days: Ouvert de janvier à février, d'octobre à décembre de 11h30 à 17h du mardi au dimanche et tous les jours pendant les vacances scolaires (zone B), d'avril à juin, et septembre de 11h30 à 17h tous les jours et 18h lors des ponts et jours fériés, en juillet-a / closing days: 1er janvier, 25 décembre"},{"title":"Musée Bigouden","description":"Musée Bigouden","coordinates":{"lat":47.8669743,"lng":-4.2222122},"address":"Château des Barons du Pont\r\nSquare de l'Europe, 29120, PONT-L'ABBE","url":"www.museebigouden.fr","details":"Phone: undefined / opening days: Ouvert en avril, mai et septembre, octobre et vacances de la Toussaint du mardi au dimanche de 14h à 18h,  en juillet-août, tous les jours de 10h à 18h / closing days: 1er mai"},{"title":"Musée des Arts Décoratifs","description":"Musée des Arts Décoratifs","coordinates":{"lat":47.0851417,"lng":2.3984372},"address":"Hôtel Lallemant\r\n5, Rue de l'Hôtel Lallemant, 18000, BOURGES","url":"Site de la ville www.ville-bourges.fr","details":"Phone: undefined / opening days: Ouvert du mardi au dimanche de 10h à 12h et de 14h à 18h / closing days: 1er janvier, 1er mai, 1er et 11 novembre, 25 décembre"},{"title":"Muséum d'Orléans pour la biodiversité et l'environnement","description":"Muséum d'Orléans pour la biodiversité et l'environnement","coordinates":{"lat":47.9082196,"lng":1.9079115},"address":"6, Rue Marcel Proust, 45000, ORLEANS","url":"www.orleans.fr","details":"Phone: undefined / opening days: Ouvert tous les jours de 14h à 18h / closing days: 1er janvier, 8 mai, 1er et 11 novembre, 25 décembre"},{"title":"Musée d'Art Moderne et Contemporain de Strasbourg","description":"Musée d'Art Moderne et Contemporain de Strasbourg","coordinates":{"lat":48.579498,"lng":7.735973},"address":"1 place Hans Jean Arp, 67000, STRASBOURG","url":"www.musees-strasbourg.eu","details":"Phone: undefined / opening days: Ouvert du mercredi au lundi de 10h à 18h / closing days: 1er janvier, vendredi saint, 1er mai, 1er et 11 novembre, 25 décembre"},{"title":"Musée Historique et Militaire de Huningue","description":"Musée Historique et Militaire de Huningue","coordinates":{"lat":47.5915049,"lng":7.585147399999999},"address":"6, rue des Boulangers, 68330, HUNINGE","url":"http://www.ville-huningue.fr/fr/musee-historique-et-militaire","details":"Phone: undefined / opening days: Ouvert le premier et troisième dimanche du mois de 14h30 à 17h30 / closing days: Août"},{"title":"Musée des Beaux-Arts","description":"Musée des Beaux-Arts","coordinates":{"lat":47.7457621,"lng":7.3384809},"address":"4, Place Guillaume-Tell, 68100, MULHOUSE","url":"http://www.musees.mulhouse.museum/dn_beaux_arts/","details":"Phone: undefined / opening days: Ouvert du mercredi au lundi de 13h à 18h30 - 19h en décembre et du 1er juillet au 31 août de 10h à 12 h et de 13h à 18h30 / closing days: 1er janvier, vendredi saint, lundi de Pâques et de Pentecôte, 1er mai, 14 juillet, 1er et 11 novembre, 25 et 26 décembre"},{"title":"Musée Historique","description":"Musée Historique","coordinates":{"lat":47.7466375,"lng":7.339229999999999},"address":"4, Rue des Archives, 68100, MULHOUSE","url":"www.musees-mulhouse.fr/musee-historique/collections.html","details":"Phone: undefined / opening days: Ouvert du mercredi au lundi de 13h à 18h30 / closing days: 1er janvier, vendredi saint, lundi de Pâques et de Pentecôte, 1er mai, 14 juillet, 1er et 11 novembre, 25 et 26 décembre"},{"title":"Musée EDF Electropolis","description":"Musée EDF Electropolis","coordinates":{"lat":47.748974,"lng":7.295179999999998},"address":"55, rue du Pâturage\r\nB.P. 52463, 68057, MULHOUSE CEDEX","url":"electropolis.edf.com","details":"Phone: undefined / opening days: Ouvert du mardi au dimanche de 10h à 18h / closing days: 1er janvier, vendredi saint, 1er mai, 1er et 11 novembre, 25 et 26 décembre"},{"title":"Musée du Dolder","description":"Musée du Dolder","coordinates":{"lat":48.1671757,"lng":7.295709199999999},"address":"57, Rue du Général de Gaulle, 68340, RIQUEWIHR","url":"www.musee-riquewihr.fr/","details":"Phone: undefined / opening days: Ouvert tous les jours du 8  juillet au 19 août  de 14h à 18h, du 6 avril au 8 juillet et du 20 août au 4 novembre les week-ends et jours fériés de 14h à 18h / closing days: Décembre, janvier, février, mars"},{"title":"Musée du Papier Peint","description":"Musée du Papier Peint","coordinates":{"lat":47.7451458,"lng":7.396856799999999},"address":"La Commanderie  28, rue Zuber\r\nB.P. 41, 68171, RIXHEIM Cedex","url":"www.museepapierpeint.org","details":"Phone: undefined / opening days: Ouvert tous les jours de 10h à 12h et de 14h à 18h du 2 mai au 31 octobre et de novembre à avril du mercredi au lundi / closing days: 1er janvier, vendredi saint, 1er mai et 25 décembre"},{"title":"Musée Garinet","description":"Musée Garinet","coordinates":{"lat":48.95607039999999,"lng":4.3665025},"address":"13, rue Pasteur, 51000, CHALONS-EN-CHAMPAGNE","url":"","details":"Phone: undefined / opening days: Ouvert sur rendez-vous uniquement, premier dimanche du mois et évènements nationaux à partir du 1er janvier 2015 / closing days: 1er janvier, 1er mai, 1er & 11 novembre, 25 décembre"},{"title":"Musée Hôtel le Vergeur","description":"Musée Hôtel le Vergeur","coordinates":{"lat":49.2571781,"lng":4.0341116},"address":"36, Place du Forum, 51100, REIMS","url":"www.museelevergeur.com","details":"Phone: undefined / opening days: Ouvert du mardi au dimanche de 14h à 18h / closing days: 1er janvier, 1er mai, 14 juillet, 1er novembre, 25 décembre"},{"title":"Musée des Beaux-Arts de Nancy","description":"Musée des Beaux-Arts de Nancy","coordinates":{"lat":48.6934317,"lng":6.182101599999999},"address":"3, Place Stanislas\r\nB.P. 218, 54004, NANCY","url":"www.mairie-nancy.fr - http://mban.nancy.fr/","details":"Phone: undefined / opening days: Ouvert du mercredi au lundi de 10h à 18h / closing days: 1er janvier, 1er mai, 14 juillet, 1er novembre, 25 décembre"},{"title":"Palais des ducs de Lorraine - Musée Historique Lorrain","description":"Palais des ducs de Lorraine - Musée Historique Lorrain","coordinates":{"lat":48.69762619999999,"lng":6.1790072},"address":"Palais Ducal\r\n64, Grande Rue, 54000, NANCY","url":"http://www.nancy.fr/transver/coord.htm#muslor - Site du Grand Nancy","details":"Phone: undefined / opening days: Ouvert du mardi au dimanche de 10h à 12h30 et de 14h à 18h / closing days: 1er janvier, 1er mai, 14 juillet, 1er novembre et 25 décembre"},{"title":"Musée Jules Bastien-Lepage - Musée de la Fortification","description":"Musée Jules Bastien-Lepage - Musée de la Fortification","coordinates":{"lat":49.5178462,"lng":5.361583899999999},"address":"La Citadelle - Ville Haute\r\nB.P. 28, 55600, MONTMEDY","url":"www.tourisme-montmedy.fr ou www.lorraine-gaumaise.com","details":"Phone: undefined / opening days: Ouverture en janvier 2 derniers WE de 10h30 à 13h et de 13h30 à 17h, en février, mars tous les jours de 10h30 à 13h et de 13h30 à 17h, en avril-septembre tous les jours de 10h à 13h et de 13h30 à 18h, en octobre-novembre tous les jours de 10h30 à 13h et d / closing days: 24 décembre au 1er janvier"},{"title":"Musée Départemental Raymond Poincaré","description":"Musée Départemental Raymond Poincaré","coordinates":{"lat":48.8275693,"lng":5.5076928},"address":"Clos Raymond Poincaré, 55300, SAMPIGNY","url":"http://www.cg55.fr","details":"Phone: undefined / opening days: Ouvert du 15 mai au 15 octobre le lundi  et du mercredi au vendredi de 10h à 12h et de 14h à 17h30, le week-end de 14h à 18h et week-end exceptionnel de 10h à 12h30 et de 13h30 à 18h / closing days: "},{"title":"Musée Départemental de la Guerre de 70","description":"Musée Départemental de la Guerre de 70","coordinates":{"lat":49.1139524,"lng":6.029876799999999},"address":"11, Rue de Metz, 57130, GRAVELOTTE","url":"http://www.mosellepassion.fr/ ou www.moselle.fr","details":"Phone: undefined / opening days: Ouvert du 28 mars au 1er novembre du mardi au dimanche de 14h à 18h et de 10h à 12h pourles groupes, du 2 novembre au 11 décembre, le musée accueille les groupes sur réservation du mardi au vendredi de 10h à 12h et de 14h à 17h / closing days: 1er mai"},{"title":"Centre Pompidou de Metz","description":"Centre Pompidou de Metz","coordinates":{"lat":49.10824059999999,"lng":6.181676299999999},"address":"1, Parvis des Droits-de-l'Homme\r\nCS 90490, 57020, METZ Cedex 1","url":"www.centrepompidou-metz.fr","details":"Phone: undefined / opening days: Ouvert du 1er avril au 31 octobre, lundi, mercredi et jeudi de 10h à 18h, vendredi  au dimanche 10h à 19h, du 1er novembre au 31 mars, du mercredi au lundi de 10h à 18h / closing days: "},{"title":"Musée Militaire et Erckmann-Chatrian","description":"Musée Militaire et Erckmann-Chatrian","coordinates":{"lat":48.766758,"lng":7.258869},"address":"Hôtel de Ville\r\nPlace d’Armes, 57370, PHALSBOURG","url":"www.phalsbourg.fr/laculturelesloisirs/lemusee","details":"Phone: undefined / opening days: Ouvert du lundi au vendredi de 9h à 12h et de 13h30 à 17h, le samedi de 10h à 12h, en juillet-août samedi et dimanche de 10h à 12h et de 14h à 17h / closing days: Jours fériés"},{"title":"Moulin de la Blies - Musée des Techniques Faïencières","description":"Moulin de la Blies - Musée des Techniques Faïencières","coordinates":{"lat":49.12603379999999,"lng":7.077137},"address":"125, Avenue de la Blies, 57200, SARREGUEMINES","url":"http://www.sarreguemines-museum.eu/","details":"Phone: undefined / opening days: Ouvert du mardi au dimanche & lundis fériés de 10h à 12h et de 14h à 18h du 1er novembre au 31 mars et du 1er avril au 31 octobre de 10h à 18h / closing days: 1er Janvier 24 et 25 Décembre"},{"title":"Jardin d'Hiver, Musée de La Faïence","description":"Jardin d'Hiver, Musée de La Faïence","coordinates":{"lat":49.109066,"lng":7.070695499999999},"address":"15-17, Rue Poincaré, 57200, SARREGUEMINES","url":"http://www.sarreguemines-museum.eu/","details":"Phone: undefined / opening days: Ouvert du mardi au dimanche de 10h à 12h et de 14h à 18h + lundis fériés / closing days: 1er Janvier, 24 et 25 Décembre"},{"title":"Musée Départemental Georges de la Tour","description":"Musée Départemental Georges de la Tour","coordinates":{"lat":48.781942,"lng":6.5311039},"address":"Place Jeann d'Arc, 57630, VIC-SUR-SEILLE","url":"www.cg57.fr/culture/1-8-delatour.asp","details":"Phone: undefined / opening days: Ouvert du mardi au dimanche de 10h00 à 18h du 28 mars au 1er novembre / closing days: 1er mai, 23 décembre au 7 janvier inclus"},{"title":"Musée de la Lutherie et de l'Archèterie Française","description":"Musée de la Lutherie et de l'Archèterie Française","coordinates":{"lat":48.3015785,"lng":6.135638699999999},"address":"Cours Stanislas, 88500, MIRECOURT","url":"www.musee-lutherie-mirecourt.fr","details":"Phone: undefined / opening days: Ouvert de février à juin, septembre et octobre du mardi au samedi de 10h à 12h et de 14h à 18h, ledimanche de 14h à 18h, en juillet-août du lundi au samedi de 10h à 12h et de 14h à 18h, le dimanche de 14h à 18h, en novembre et décembre le mercredi, samedi / closing days: Janvier, 1er mai, 25 décembre"},{"title":"Musée Louis Français","description":"Musée Louis Français","coordinates":{"lat":47.964222,"lng":6.4585157},"address":"30, Avenue Louis Français, 88370, PLOMBIERES-LES-BAINS","url":"site de la ville","details":"Phone: undefined / opening days: Ouvert en 2013 en visite guidée accompagnée et lors de certaines grandes manifestations organisées par la ville / closing days: "},{"title":"Musée Charles de Bruyères","description":"Musée Charles de Bruyères","coordinates":{"lat":48.016143,"lng":6.5932448},"address":"70, Rue Charles de Gaulle, 88200, REMIREMONT","url":"www.remiremont.fr/culture/musees.php","details":"Phone: undefined / opening days: Ouvert de janvier à mars du lundi au samedi de 14h à 18h, et en avril de 14h à 18h et de mai à septembre de 10h à 12h et de 14h à 18h, de novembre à décembre de 14h à 18h du mercredi au lundi / closing days: Octobre - 1er janvier, 1er mai, Ascension, Toussaint, 25 décembre"},{"title":"Musée Précolombien Edgar Clerc","description":"Musée Précolombien Edgar Clerc","coordinates":{"lat":16.3385033,"lng":-61.3776232},"address":"440 Route de la Rosette, 97160, LE MOULE","url":"www.cg971.fr/musees/clerc/index_edgar.htm","details":"Phone: undefined / opening days: Ouvert du lundi au vendredi de 9h à 17h / closing days: Jours fériés"},{"title":"Musée Municipal Saint-John Perse","description":"Musée Municipal Saint-John Perse","coordinates":{"lat":16.2363953,"lng":-61.5358508},"address":"9, rue de Nozière, 97110, POINTE-A-PITRE","url":"www.sjperse.org/museesjp.htm","details":"Phone: undefined / opening days: Ouvert du lundi au vendredi de 9h à 17h, le  samedi de 8h30 à 12h30 / closing days: Jours fériés"},{"title":"Musée Départemental Alexandre Franconie","description":"Musée Départemental Alexandre Franconie","coordinates":{"lat":4.938351300000001,"lng":-52.3344377},"address":"1, Avenue du Général-de-Gaulle, 97300, CAYENNE - GUYANE","url":"","details":"Phone: undefined / opening days: De septembre à juin :\r\nLundi : 10h00-14h00 / 15h00-18h00\r\nMercredi : 8h00-13h30 / 15h00-18h00\r\nJeudi : 8h00-14h00\r\nVendredi : 8h00-14h00 / 15h00-18h00\r\nSamedi : 9h00-13h30\r\nJuillet et août :\r\nDu lundi au vendredi : 8h00-14h30\r\nSamedi : 9h00-13h30 / closing days: "},{"title":"Musée Jean de la Fontaine","description":"Musée Jean de la Fontaine","coordinates":{"lat":49.0467592,"lng":3.3999789},"address":"12, Rue Jean de la Fontaine, 02400, CHATEAU-THIERRY","url":"www.musee-jean-de-la-fontaine.fr","details":"Phone: undefined / opening days: Ouvert du mardi au dimanche de 9h30 à 12h et de 14h à 17h30 / closing days: 1er janvier, 1er mai, 1er novembre, 25 décembre"},{"title":"Musée Antoine Lecuyer","description":"Musée Antoine Lecuyer","coordinates":{"lat":49.8498863,"lng":3.2851603},"address":"28, Rue Antoine Lecuyer, 02100, SAINT-QUENTIN","url":"www.museeantoinelecuyer.fr/ ou www.mquentindelatour.com/","details":"Phone: undefined / opening days: Ouvert du mardi au dimanche de 14h à 18h / closing days: 1er janvier, 1er mai, dimanche de la Pentecôte, 14 juillet, 1er novembre et 25 décembre"},{"title":"Musée de La Thiérache","description":"Musée de La Thiérache","coordinates":{"lat":49.83462069999999,"lng":3.9066944},"address":"Place de l'Hôtel de ville, 02140, VERVINS","url":"http://museedelathierache.jimdo.com ou www.evasion-aisne.com","details":"Phone: undefined / opening days: Ouvert d'octobre à mai du lundi midi au samedi midi de 9h à 12h et de 13h30 à 17h30, de juin à septembre du mardi au samedi de 9h à 12h et de 14h à 18h / closing days: "},{"title":"Musée Alexandre Dumas","description":"Musée Alexandre Dumas","coordinates":{"lat":49.253031,"lng":3.089792},"address":"24, Rue Demoustiers, 02600, VILLERS COTTERETS","url":"Site de la mairie - www.mairie-villerscotterets.fr","details":"Phone: undefined / opening days: Ouvert du mercredi au lundi de 14h à 17h, dimanche de 14h à 18h / closing days: Jours fériés"},{"title":"Musée d'Histoire et d'Archéologie","description":"Musée d'Histoire et d'Archéologie","coordinates":{"lat":49.02391799999999,"lng":1.150925},"address":"16 rue Villien, 59440, AVESNES-SUR-HELPE","url":"http://www.annuaire-mairie.fr/musee-de-la-societe-archeologique-d-avesnes-sur-helpe.html#musee","details":"Phone: undefined / opening days:  / closing days: "},{"title":"Musée Benoît de Puydt","description":"Musée Benoît de Puydt","coordinates":{"lat":50.7407076,"lng":2.7345604},"address":"24, Rue du Musée de Puydt, 59270, BAILLEUL","url":"Site de la ville","details":"Phone: undefined / opening days: Ouvert de 14h à 17h30 du mercredi au dimanche. Ouverture exceptionnelle lundi de Pâques, jeudi de l'Ascension, lundi de Pentecôte, 15 août, 11 novembre / closing days: 1er et 8 mai, 14 juillet, 1er novembre, les 4 jours de carnaval, du 24 décembre au 1er janvier"},{"title":"Forum Antique de Bavay","description":"Forum Antique de Bavay","coordinates":{"lat":50.29897099999999,"lng":3.791604},"address":"Allée Chanoine Henri Biévelet, 59570, BAVAY","url":"http://forumantique.lenord.fr/","details":"Phone: undefined / opening days: Ouvert tous les jours de 9h à 12h et de 13h à 18h / closing days: 1er janvier, 1er mai, 1er et 11 novembre, 25 décembre - Fermetures annuelles la 1ère quinzaine de septembre et la 2ème quinzaine de janvier"},{"title":"Musée de l'Ostrevant","description":"Musée de l'Ostrevant","coordinates":{"lat":50.2847631,"lng":3.3111506},"address":"192, rue Edouard Lalo, 59111, BOUCHAIN","url":"http://museedostrevant.canalblog.com/","details":"Phone: undefined / opening days: Ouvert le dimanche de 15h à 18h d'avril à octobre, les autres jours toute l'année sur rendez-vous / closing days: "},{"title":"Musée Municipal de Cambrai","description":"Musée Municipal de Cambrai","coordinates":{"lat":50.1731749,"lng":3.2297946},"address":"15, Rue de l'Epée, 59400, CAMBRAI","url":"www.villedecambrai.com/culture/musee.html","details":"Phone: undefined / opening days: Ouvert du mercredi au dimanche de 10h à 12h et de 14h à 18h pour tous les publics et les lundis et mardis uniquement aux groupes sur réservation (8h30 à 12h30 et 14h à 18h) / closing days: 1er janvier, 1er et 8 mai, 14 juillet, 15 août, 1er et 11 novembre, 25 décembre"},{"title":"Musée d'Archéologie et d'Histoire Locale","description":"Musée d'Archéologie et d'Histoire Locale","coordinates":{"lat":50.32738089999999,"lng":3.4001648},"address":"9, Place Wilson, 59220, DENAIN","url":"Site de la ville - www.ville-denain.fr","details":"Phone: undefined / opening days: Ouvert du mardi au vendredi de 14h à 18h, samedi de 16h à 18h et dimanche de 10h à 12h / closing days: "},{"title":"Musée Municipal d'Escaudain","description":"Musée Municipal d'Escaudain","coordinates":{"lat":50.3330137,"lng":3.344146},"address":"Rue Paul Bert, 59124, ESCAUDAIN","url":"http//clec.free.fr","details":"Phone: undefined / opening days: Ouvert le dimanche de 10h à 12h, et le premier dimanche du mois de 15h à 17h / closing days: "},{"title":"Ecomusée de la Région","description":"Ecomusée de la Région","coordinates":{"lat":50.0171596,"lng":4.0425778},"address":"Place Maria Blondeau, 59610, FOURMIES","url":"www.ecomusee-avesnois.fr","details":"Phone: undefined / opening days: Ouvert de février à début décembre du mardi au vendredi de 9h30 à 12h et de 14h à 18h, week-end et jours fériés de 14h30 à 18h30 / closing days: Du 15 décembre  au 31 janvier"},{"title":"Musée Départemental Matisse","description":"Musée Départemental Matisse","coordinates":{"lat":50.10606139999999,"lng":3.541006},"address":"Palais Fénelon\r\nPlace du Commandant Richez, 59360, LE CATEAU-CAMBRESIS","url":"www.cg59.fr ou www.tourisme-lecateau.fr/museematisse","details":"Phone: undefined / opening days: Ouvert du mercredi au lundi de 10h à 18h / closing days: 1er janvier, 1er novembre, 25 décembre"},{"title":"La Piscine - Musée d'Art et d'Industrie André Diligent de Roubaix","description":"La Piscine - Musée d'Art et d'Industrie André Diligent de Roubaix","coordinates":{"lat":50.69304349999999,"lng":3.1675472},"address":"23, Rue de l'Espérance, 59100, ROUBAIX","url":"www.roubaix-lapiscine.com","details":"Phone: undefined / opening days: Ouvert du mardi au jeudi de 11h à 18h, vendredi de 11h à 20h, samedi et dimanche de 13h à 18h / closing days: 1er janvier, 1er mai, jeudi de l'Ascension, 14 juillet, 15 août, 1er novembre, 25 décembre"},{"title":"Musée de la Céramique Architecturale","description":"Musée de la Céramique Architecturale","coordinates":{"lat":49.37172409999999,"lng":1.9906839},"address":"432, Avenue du Maréchal Foch, 60390, AUNEUIL","url":"www.annuaire-mairie.fr/musee-de-la-ceramique-architecturale.html","details":"Phone: undefined / opening days: Musée fermé au public / closing days: "},{"title":"Musée de la Figurine Historique","description":"Musée de la Figurine Historique","coordinates":{"lat":49.4177613,"lng":2.8263579},"address":"28, Place de l'Hôtel de Ville, 60200, COMPIEGNE","url":"www.musee-figurine.fr","details":"Phone: undefined / opening days: Ouvers du mardi au dimanche de 10h à 13h et de 14h à 18h / closing days: 1er janvier, 1er mai, 14 juillet, 1er novembre et 25 décembre"},{"title":"Musée de la Nacre et de la Tabletterie","description":"Musée de la Nacre et de la Tabletterie","coordinates":{"lat":49.2384495,"lng":2.1384237},"address":"51, rue Roger Salengro, 60110, MERU","url":"www.musee-nacre.com","details":"Phone: undefined / opening days: Ouvert du mercredi au lundi de 14h30 à 18h30 avec visite guidée à 15h, 16h ou 17h / closing days: 1er janvier,  25 décembre"},{"title":"Musée Communautaire Opale-Sud","description":"Musée Communautaire Opale-Sud","coordinates":{"lat":50.405,"lng":1.5677778},"address":"60, Rue de l'Impératrice, 62600, BERCK-SUR-MER","url":"www.opale-sud.com","details":"Phone: undefined / opening days: Ouvert du 1er septembre au 30 juin, le lundi de 15h à 18h, du mercredi au dimanche de 10h à 12h et de 15h à 18h, et en juillet-août du mercredi au lundi de 10h à 12h30 et de 14h à 18h / closing days: 1er janvier, 1er mai, 25 décembre"},{"title":"Musée Henri Dupuis","description":"Musée Henri Dupuis","coordinates":{"lat":50.7482688,"lng":2.2510286},"address":"9, Rue Henri Dupuis, 62500, SAINT-OMER","url":"m3.dnsalias.com/sandelin - http://www.musenor.com/Les-Musees/Saint-Omer-Musee-Henri-Dupuis","details":"Phone: undefined / opening days:  / closing days: "},{"title":"Musée Roybet Fould","description":"Musée Roybet Fould","coordinates":{"lat":48.900432,"lng":2.27182},"address":"Parc de Bécon\r\n178, Boulevard Saint Denis, 92400, COURBEVOIE","url":"https://www.ville-courbevoie.fr/culture-loisirs/equipements/musee-roybet-fould.htm","details":"Phone: undefined / opening days: Ouvert du mercredi au dimanche de 10h30 à 18h / closing days: Fermé le 1er janvier, 1er mai, Pâques, Toussaint, Noël"},{"title":"Musée d'Art et d'Histoire","description":"Musée d'Art et d'Histoire","coordinates":{"lat":48.8063837,"lng":2.2349609},"address":"11, Rue des Pierres, 92190, MEUDON","url":"www.meudon.fr","details":"Phone: undefined / opening days: Ouvert du mardi au dimanche de 14h à 18h. Pour les groupes et centre de documentation ouvert du lundi au dimanche de 9h à 12h et de 14h à 18h / closing days: Août"},{"title":"Palais Galliera - Musée de la Mode de la ville de Paris","description":"Palais Galliera - Musée de la Mode de la ville de Paris","coordinates":{"lat":48.8659745,"lng":2.2966155},"address":"10, Avenue Pierre 1er de Serbie, 75116, PARIS","url":"www.palaisgalliera.paris.fr","details":"Phone: undefined / opening days: Ouvert du mardi au dimanche de 10h à 18h / closing days: Musée fermé en dehors des expositions temporaires. Certains jours fériés"},{"title":"Musée de l'Homme (Muséum National d'Histoire Naturelle)","description":"Musée de l'Homme (Muséum National d'Histoire Naturelle)","coordinates":{"lat":48.861166,"lng":2.2868264},"address":"Place du Trocadéro, 75116, PARIS","url":"www.museedelhomme.fr ou www.mnhn.fr","details":"Phone: undefined / opening days: Ouvert du mercredi au lundi de 10h à 18h / closing days: 1er janvier, 1er mai et 25 décembre"},{"title":"Musée de la Franc-Maçonnerie","description":"Musée de la Franc-Maçonnerie","coordinates":{"lat":48.87488399999999,"lng":2.34315},"address":"16, Rue Cadet, 75009, PARIS","url":"www.museefm.org","details":"Phone: undefined / opening days: Ouvert du mardi au vendredi de 10h à 12h30 et de  14h à 18h, le samedi de 10h à 13h et de 14h à 19h, le dimanche de 10h à 12h30 et de  13h à 18h / closing days: Jours fériés"},{"title":"Musée Zadkine","description":"Musée Zadkine","coordinates":{"lat":48.8430863,"lng":2.3340055},"address":"100 bis, rue d'Assas, 75006, PARIS","url":"www.zadkine.paris.fr","details":"Phone: undefined / opening days: Ouvert du mardi au dimanche de 10h à 18h / closing days: Jours fériés"},{"title":"Musée National Auguste Rodin","description":"Musée National Auguste Rodin","coordinates":{"lat":48.8553072,"lng":2.3158354},"address":"Hôtel Biron\r\n77, rue de Varenne, 75007, PARIS","url":"www.musee-rodin.fr","details":"Phone: undefined / opening days: Ouvert du mardi au dimanche de 10h à 18h / closing days: 1er janvier, 1er mai, 25 décembre"},{"title":"Musée National de la Légion d'Honneur et des Ordres de Chevalerie","description":"Musée National de la Légion d'Honneur et des Ordres de Chevalerie","coordinates":{"lat":48.8602978,"lng":2.3246804},"address":"2, Rue de la Légion d'Honneur, 75007, PARIS","url":"www.legiondhonneur.fr","details":"Phone: undefined / opening days: Ouvert du mercredi au dimanche de 13h à 18h. Accessible le mardi pour les groupes sur réservation / closing days: 1er janvier, 1er mai, 15 août, 1er novembre et 25 décembre"},{"title":"Musée de l'Armée","description":"Musée de l'Armée","coordinates":{"lat":48.85579329999999,"lng":2.3125934},"address":"Hôtel National des Invalides\r\n129, rue de Grenelle, 75007, PARIS","url":"/www.musee-armee.fr","details":"Phone: undefined / opening days: Ouvert d'avril à octobre de 10h à 18h, de novembre à mars de 10h à 17h (17h30 pendant les vacances de Noël et de printemps). Du 15 juin au 15 septembre l'église du dôme reste ouverte jusqu'à 19h / closing days: 1er janvier, 1er mai, 1er novembre, 25 décembre"},{"title":"Grande Galerie de l'Evolution (Muséum National d'Histoire Naturelle)","description":"Grande Galerie de l'Evolution (Muséum National d'Histoire Naturelle)","coordinates":{"lat":48.8418666,"lng":2.3563799},"address":"Jardin des Plantes\r\n36, rue Geoffroy Saint-Hilaire, 75005, PARIS","url":"www.mnhn.fr","details":"Phone: undefined / opening days: Ouvert du mercredi au lundi de 10h à 18h / closing days: 1er mai"},{"title":"Musées Arts Décoratifs  Mode et du Textile","description":"Musées Arts Décoratifs  Mode et du Textile","coordinates":{"lat":48.8631527,"lng":2.3336027},"address":"107, Rue de Rivoli, 75001, PARIS","url":"www.lesartsdecoratifs.fr","details":"Phone: undefined / opening days: Ouvert du mardi au vendredi de 11h à 18h, samedi et dimanche de 10h à 18h, nocturnele jeudi jusqu'à 21h / closing days: "},{"title":"Musée National Eugène Delacroix","description":"Musée National Eugène Delacroix","coordinates":{"lat":48.8544557,"lng":2.3355825},"address":"6, Rue Furstenberg, 75006, PARIS","url":"www.musee-delacroix.fr","details":"Phone: undefined / opening days: Ouvert du mercredi au lundi de 9h30 à 17h / closing days: 14 juillet"},{"title":"Galerie d’entomologie (Muséum national d'histoire naturelle)","description":"Galerie d’entomologie (Muséum national d'histoire naturelle)","coordinates":{"lat":48.84338959999999,"lng":2.3634888},"address":"57, Rue Cuvier, 75005, PARIS","url":"www.mnhn.fr","details":"Phone: undefined / opening days:  / closing days: "},{"title":"Musée des Monnaies et des Médailles","description":"Musée des Monnaies et des Médailles","coordinates":{"lat":48.8566784,"lng":2.3390568},"address":"11, Quai de Conti, 75270, PARIS Cedex 06","url":"www.monnaiedeparis.fr","details":"Phone: undefined / opening days: Ouvert du mardi au dimanche de 11h à 19h / closing days: 1er janvier, le 1er mai et le 25 décembre."},{"title":"L'Adresse Musée de la Poste","description":"L'Adresse Musée de la Poste","coordinates":{"lat":48.8414268,"lng":2.3172181},"address":"34, Boulevard de Vaugirard, 75731, PARIS Cedex 15","url":"www.ladressemuseedelaposte.fr ou www.museedelaposte.fr","details":"Phone: undefined / opening days: Ouvert du lundi au samedi de 10h à 18h et le premier jeudi jusqu'à 20h / closing days: Jours fériés"},{"title":"Musée Yves Saint Laurent","description":"Musée Yves Saint Laurent","coordinates":{"lat":48.865643,"lng":2.2994509},"address":"5, Avenue Marceau, 75116, PARIS Cedex 16","url":"https://museeyslparis.com/","details":"Phone: undefined / opening days: Ouvert du mardi au dimanche de 11h à 18h, nocturne le vendredi jusqu’à 21h / closing days: 1er janvier, 1er mai et 25 décembre"},{"title":"Musée Municipal des Capucins","description":"Musée Municipal des Capucins","coordinates":{"lat":48.8100642,"lng":3.0872156},"address":"Hôtel de Ville\r\nB.P. 171, 77527, COULOMMIERS cedex","url":"www.tourisme77.fr ou www.coulommiers.fr","details":"Phone: undefined / opening days: Ouvert de mai à septembre le mercredi, vendredi, samedi, dimanche de 14h à 18h, d'octobre à avril le mercredi, samedi et dimanche de 14h à 17h30 / closing days: "},{"title":"Musée Bossuet","description":"Musée Bossuet","coordinates":{"lat":48.96060850000001,"lng":2.8784485},"address":"Cité Episcopale\r\n5, Place Charles de Gaulle, 77100, MEAUX","url":"www.musee-bossuet.fr","details":"Phone: undefined / opening days: Ouvert du mercredi au lundi d'avril à septembre de 10h à 12h et de 14h à18h, et du mercredi au samedi d'octobre à mars de 10h à 12h et de 14h à 17h et le dimanche de 14h à 17h / closing days: 1er Janvier, 1er Mai, 14 Juillet et 25 Décembre"},{"title":"Musée de l'Air et de l'Espace","description":"Musée de l'Air et de l'Espace","coordinates":{"lat":48.946587,"lng":2.4346183},"address":"Aéroport de Paris - Le Bourget\r\n3 Esplanade de l'Air et de l'espace\r\nBP 173, 93352, LE BOURGET Cedex","url":"www.museeairespace.fr","details":"Phone: undefined / opening days: Ouvert du mardi au dimanche d'octobre à mars de 10h à 17h et d'avril à septembre de 10h à 18h / closing days: 25 décembre, 1er janvier"},{"title":"Musée Municipal","description":"Musée Municipal","coordinates":{"lat":48.9153927,"lng":2.3295736},"address":"12, Rue Albert Dhalenne, 93400, SAINT-OUEN","url":"www.saint-ouen.fr/la-ville-en-action/decouvrir-la-ville/histoire-et-patrimoine/musee-dart-et-dhistoire/","details":"Phone: undefined / opening days:  / closing days: "},{"title":"Musée Tavet Delacour","description":"Musée Tavet Delacour","coordinates":{"lat":49.0510822,"lng":2.0996815},"address":"4, Rue Lemercier, 95300, PONTOISE","url":"Site de la ville - www.ville-Pontoise.fr","details":"Phone: undefined / opening days: Ouvert du mercredi au dimanche de 10h à 12h30 et de 13h30 à 18h / closing days: Jours fériés"},{"title":"Musée de la Batellerie et des Voies Navigables","description":"Musée de la Batellerie et des Voies Navigables","coordinates":{"lat":48.992545,"lng":2.0958},"address":"Château du Prieuré\r\n3, Place Gévelot, 78700, CONFLANS-SAINTE-HONORINE","url":"www.musee-batellerie-conflans.fr","details":"Phone: undefined / opening days: Ouvert du lundi au vendredi de 9h à 12h et de 13h30 à 18h, mardi de 13h30 à 18h, samedi dimanche et jours fériés de 14h à 17h en hiver et de 15h à 18h en été / closing days: "},{"title":"Musée Zola-Dreyfus","description":"Musée Zola-Dreyfus","coordinates":{"lat":48.9555024,"lng":1.9955334},"address":"26, Rue Pasteur, 78670, MEDAN","url":"www.maisonzola-museedreyfus.com","details":"Phone: undefined / opening days:  / closing days: "},{"title":"Musée-Maison Maurice Ravel","description":"Musée-Maison Maurice Ravel","coordinates":{"lat":48.77622239999999,"lng":1.805411},"address":"5, Rue Maurice Ravel, 78490, MONTFORT-L'AMAURY","url":"www.ville-montfort-l-amaury.fr","details":"Phone: undefined / opening days: Ouvert uniquement les week-end à 10h, 11h, 14h30, 15h30, 16h30 sur réservation et par groupe de 6 maximum (individuel). Pour les groupes sur rendez-vous du mardi au vendredi de 10h à 12h et de 14h à 18h / closing days: 25 décembre, 1er janvier"},{"title":"Musée du Jouet Pierre Pinel","description":"Musée du Jouet Pierre Pinel","coordinates":{"lat":48.928473,"lng":2.037929000000001},"address":"1, Enclos de l'Abbaye, 78300, POISSY","url":"site de la ville","details":"Phone: undefined / opening days: Ouvert du mardi au dimanche de 9h30 à 12h et de 14h à 17h30 / closing days: Jours fériés"},{"title":"Musée du Père Pinchon","description":"Musée du Père Pinchon","coordinates":{"lat":14.6163088,"lng":-61.07855419999999},"address":"33 Rue du Professeur Raymond Garcin, 97200, FORT-DE-France","url":"http://www.collectivitedemartinique.mq/le-musee-du-pere-pinchon/","details":"Phone: undefined / opening days:  / closing days: "},{"title":"Muséum d'Histoire Naturelle","description":"Muséum d'Histoire Naturelle","coordinates":{"lat":14.6160647,"lng":-61.0587804},"address":"B.P. 4030, 97254, FORT-DE-FRANCE TERRE-SAINVILLE Cedex","url":"","details":"Phone: undefined / opening days:  / closing days: "},{"title":"Musée de Normandie","description":"Musée de Normandie","coordinates":{"lat":49.1856932,"lng":-0.3635027},"address":"Le Château, 14000, CAEN","url":"www.musee-de-normandie.fr","details":"Phone: undefined / opening days: Ouvert de 9h30 à 12h30 et de 14h à 18h le lundi et du mercredi au vendredi et de 11h à 18h le week-end et jours fériés du 2 novembre au 31 mai (Lundis de Pâques et de Pentecôte compris) et du 1er juin au 31 octobre tous les jours / closing days: 1er janvier, dimanche de Pâques, 1er mai, Ascension, 1er novembre, 25 décembre"},{"title":"Musée Eugène Boudin","description":"Musée Eugène Boudin","coordinates":{"lat":49.4199428,"lng":0.2293062},"address":"Place Erik-Satie\r\nB.P. 80049, 14602, HONFLEUR cedex","url":"www.musees-honfleur.fr - www.ville-honfleur.fr","details":"Phone: undefined / opening days: Ouvert du 11 février au 14 mars et du 1er octobre au 31 décembre du lundi au vendredi  de 14h30 à 17h3, samedi, dimanche de 10h à 12h et de 14h30 à 17h30, du 15 mars au 30 septembre du mercredi au lundi de 10h à 12h, prolongation jusqu'à 13h de juillet à  / closing days: 1er janvier, 1er mai, 14 juillet et 25 décembre. Du 1er janvier au 10 février"},{"title":"Musée Municipal","description":"Musée Municipal","coordinates":{"lat":49.0222874,"lng":0.4065469},"address":"107, rue Grande, 14290, ORBEC","url":"site de la mairie - http://www.mairie-orbec.fr","details":"Phone: undefined / opening days: Ouvert en avril samedi et dimanche de 10h à 12h30 et de 15h à 18h, de mai à octobre du mercredi au dimanche de 10h à 12h30 et de 15h à 18h, en novembre et décembre suivant les expositions du mercredi au dimanche de 10h à 12h30 et de 15h à 18h / closing days: Janvier à mars"},{"title":"Musée du Verre et de la Pierre","description":"Musée du Verre et de la Pierre","coordinates":{"lat":48.9561848,"lng":0.9377063},"address":"Route de Sainte-Marguerite, 27190, CONCHES-EN-OUCHE","url":"www.museeduverre.fr","details":"Phone: undefined / opening days: Ouvert de mars à novembre du mercredi au dimanche de 14h à 18h - ouvert le 14 juillet et 15 août / closing days: 1er janvier, 1er et 8 mai, 11 novembre, 25 décembre"},{"title":"Musée de la Guerre et de la Libération","description":"Musée de la Guerre et de la Libération","coordinates":{"lat":49.6306294,"lng":-1.6139632},"address":"Fort du Roule\r\nMontée des Résistants, 50100, CHERBOURG-EN-COTENTIN","url":"www.ville-cherbourg.fr","details":"Phone: undefined / opening days: Ouvert du mardi au vendredi de 10h à 12h30 et de 14h à 17h, le samedi et dimanche de 13h à 18h / closing days: Décembre et janvier et jours fériés"},{"title":"Musée Municipal","description":"Musée Municipal","coordinates":{"lat":49.6488753,"lng":-1.6534812},"address":"Hôtel de ville\r\nPlace Hippolyte Mars\r\nB.P. 29, 50120, EQUEURDREVILLLE-HAINNEVILLE","url":"www.equeurdreville.com","details":"Phone: undefined / opening days: Ouvert du lundi au vendredi de 13h30 à 17h30 et deux dimanches du mois de 15h à 18h lors des expositions / closing days: "},{"title":"Musée des Beaux-Arts","description":"Musée des Beaux-Arts","coordinates":{"lat":49.1170517,"lng":-1.0877317},"address":"Centre Culturel Jean Lurçat\r\nPlace du Champ de Mars, 50000, SAINT-LO","url":"","details":"Phone: undefined / opening days: Ouvert du mercredi au dimanche de 14h à 18h, sur rendez-vous le matin / closing days: 1er janvier, Pâques, 1er mai, Ascension, 1er novembre, 25 décembre"},{"title":"Musée Barbey d'Aurevilly","description":"Musée Barbey d'Aurevilly","coordinates":{"lat":49.3845044,"lng":-1.5332374},"address":"64, Rue Bottin Desylles, 50390, SAINT-SAUVEUR-LE-VICOMTE","url":"http://museebarbeydaurevilly.over-blog.com/","details":"Phone: undefined / opening days: Ouvert d'avril à octobre du dimanche, lundi, mercredi au vendredi de 14h à 18h, toutes les vacances scolaires (A,B,C) dimanche, lundi, mercredi au vendredi et jours fériés de 14h à 18h / closing days: Toussaint, Noël, jour de l'an"},{"title":"Musée Municipal - Musée du Jouet","description":"Musée Municipal - Musée du Jouet","coordinates":{"lat":48.59037499999999,"lng":-0.359151},"address":"32, Rue de la Victoire, 61600, LA FERTE-MACE","url":"site de l'office du tourism","details":"Phone: undefined / opening days: Ouvert d'avril à juin et septembre samedi, dimanche et jours fériés de 15h à 18h, juillet-août tous les jours de 15h à 18h, octobre à mars sur rendez-vous pour les groupes / closing days: "},{"title":"Musée Municipal d'Archéologie","description":"Musée Municipal d'Archéologie","coordinates":{"lat":48.7648836,"lng":0.6291601},"address":"Service Patrimoine\r\n44, Place Fulbert de Beina, 61300, L'AIGLE","url":"www.ville-laigle.fr","details":"Phone: undefined / opening days: Ouvert d'avril à octobre le mardi, mercredi, samedi et dimanche de 14h à 18h / closing days: "},{"title":"Pavillon Flaubert","description":"Pavillon Flaubert","coordinates":{"lat":49.4344307,"lng":1.0300353},"address":"18, Quai Gustave Flaubert\r\nDieppedalle-Croisset, 76380, CANTELEU","url":"www.litterature-lieux.com/fiche-site-80.htm - Site des musées de la région","details":"Phone: undefined / opening days: Ouvert en mai-juin-septembre du mardi au vendredi sur réservation de 9h à 12h et le samedi et dimanche de 14h à 18h, en juillet-août de 9h à 12h du mercredi au dimanche de 14h à 18h, en février, mars, avril, octobre à novembre du mardi au samedi de 9h à 1 / closing days: Jours fériés sauf lundi de Pentecôtes et lundi de Pâques"},{"title":"Musée de la Céramique","description":"Musée de la Céramique","coordinates":{"lat":49.445449,"lng":1.093608},"address":"1, rue Faucon, 76000, ROUEN","url":"http://museedelaceramique.fr","details":"Phone: undefined / opening days: Ouvert du mercredi au lundi de 10h à 13h et de 14h à 18h / closing days: 1er janvier, 1er, 8 et 13 mai, Ascension, 14 juillet, 15 août, 1er et 11 novembre, 25 décembre"},{"title":"MUNAE - Musée National de l'Education","description":"MUNAE - Musée National de l'Education","coordinates":{"lat":49.4413841,"lng":1.1016893},"address":"185, rue Eau de Robec, 76000, ROUEN","url":"www.reseau-canope.fr/musee/","details":"Phone: undefined / opening days: ouvert les lundis, mercredis, jeudis et vendredis de 13h30 à 18h15,\r\nles samedis et dimanches de 10h à 12h30 et de 13h30 à 18h15. \r\nOuvert tous les jours pour les groupes sur réservations / closing days: Jours fériés"},{"title":"Musée Napoléonien et Africain","description":"Musée Napoléonien et Africain","coordinates":{"lat":46.01310900000001,"lng":-1.174392},"address":"Rue Napoléon, 17123, ILE D'AIX","url":"http://musees-nationaux-malmaison.fr/musees-napoleonien-africain/","details":"Phone: undefined / opening days: Ouvert du 1er avril au 30 septembre tous les jours de 9h30 à 12h et de 14h à 18h, du 1er au 31 octobre du mercredi au lundi de 9h30 à 12h et de 14h à 18h, du 1er novembre au 31 mars du mercredi au lundi de 9h30 à 12h et de 14h à 17h / closing days: 1er janvier, 25 décembre"},{"title":"Musée Labenche d'Art et d'Histoire","description":"Musée Labenche d'Art et d'Histoire","coordinates":{"lat":45.1582854,"lng":1.5352695},"address":"26 bis, boulevard Jules Ferry, 19100, BRIVE-LA-GAILLARDE","url":"www.musee-labenche.com ou www.brive.net","details":"Phone: undefined / opening days: Musée ouvert du mercredi au lundi du 1er mai au 30 septembre de 10h à 12h30 et de 13h30 à 18h, et du 1er octobre au 30 avril de 14h à 18h & expositions temporaires du lundi au samedi de 12h à 18h et le dimanche de 15h à 18h\r\nChapelle Saint-Libéral ouvert  / closing days: 1er janvier, 1er mai, 1er novembre, 25 décembre"},{"title":"Musée d'Histoire Naturelle","description":"Musée d'Histoire Naturelle","coordinates":{"lat":46.321098,"lng":-0.454352},"address":"28, avenue de Limoges, 79000, NIORT","url":"","details":"Phone: undefined / opening days:  / closing days: "},{"title":"Centre National Jean Moulin","description":"Centre National Jean Moulin","coordinates":{"lat":44.8386765,"lng":-0.5776924},"address":"Direction des établissements culturels\r\n48, rue Vital Carles, 33000, BORDEAUX","url":"Site de la ville : www.bordeaux.fr","details":"Phone: undefined / opening days: Ouvert du mardi au dimanche de 14h à 18h - (ouvert le 14 juillet et le 15 août) / closing days: Certains jours fériés"},{"title":"Musée de la Voiture à Cheval. Au temps des calèches","description":"Musée de la Voiture à Cheval. Au temps des calèches","coordinates":{"lat":45.0396757,"lng":-0.5609535999999999},"address":"3, Place de la Citadelle, 33710, BOURG-SUR-GIRONDE","url":"Site des musées d'aquitaine","details":"Phone: undefined / opening days: Ouvert de mars à mai et octobre week-end et jours fériés de 10h à 13h et de 14h à 19h, et de juin à septembre tous les jours / closing days: 1er mai"},{"title":"Musée Historique ou du Vieux Libourne (Robin)","description":"Musée Historique ou du Vieux Libourne (Robin)","coordinates":{"lat":44.9132887,"lng":-0.2440738},"address":", 33500, LIBOURNE","url":"","details":"Phone: undefined / opening days:  / closing days: "},{"title":"Musée Municipal des Beaux-Arts de Limoges - Palais de l'Evêché","description":"Musée Municipal des Beaux-Arts de Limoges - Palais de l'Evêché","coordinates":{"lat":45.82799,"lng":1.266371},"address":"1, Place de l'Evêché, 87000, LIMOGES","url":"www.museebal.fr","details":"Phone: undefined / opening days: Ouvert du 1er avril au 30 septembre de 10h à 18h du mercredi au lundi et du 1er octobre au 31 mars, le lundi et du mercredi au samedi de 10h à 12h et de 14h à 17h et le dimanche de 14h à 17h / closing days: 1er janvier, 1er mai, 1er et 11 novembre, 25 décembre"},{"title":"Musée Despiau-Wlérick","description":"Musée Despiau-Wlérick","coordinates":{"lat":43.8925182,"lng":-0.4991145},"address":"6, Place Marguerite de Navarre, 40000, MONT-DE-MARSAN","url":"www.mont-de-marsan.org/decouvrir/decouv_muse.html ou Site des musées aquitains","details":"Phone: undefined / opening days: Ouvert du mercredi au dimanche de 10h à 12h et de 14h à 18h / closing days: Jours fériés - Fermeture annuelle vacances scolaires de noël"},{"title":"Atelier-Musée  (Ecomusée de la Grande Landes)","description":"Atelier-Musée  (Ecomusée de la Grande Landes)","coordinates":{"lat":44.2635294,"lng":-0.5188123},"address":"101, Rue Jacques Desert, 40043, LUXEY","url":"Site du parc - www.parc-landes-de-gascogne.fr","details":"Phone: undefined / opening days:  / closing days: "},{"title":"Musée Départemental de la Faïence et des Arts de la table","description":"Musée Départemental de la Faïence et des Arts de la table","coordinates":{"lat":43.6412304,"lng":-0.5107478},"address":"2378, Route d'Hagetmau, 40320, SAMADET","url":"www.museesamadet.landes.fr","details":"Phone: undefined / opening days: Ouvert du 1er février au 31 mai de 14h à  18h et du 1er juin au 30 septembre de 10h à 12h et du 14h à 18h30 du mardi au dimanche, et du 1er octobre au 30 novembre de 14h à 18h du mardi au dimanche / closing days: 1er mai, 1er et 11 novembre, du 1er décembre  au 31 janvier"},{"title":"Musée de Préhistoire Mésolithique Laurent Coulonges","description":"Musée de Préhistoire Mésolithique Laurent Coulonges","coordinates":{"lat":44.5903144,"lng":1.0135961},"address":"Le Bourg, 47500, SAUVETERRE-LA-LEMANCE","url":"www.sauveterre-prehistoire.fr ou www.tourisme-fumelois.fr","details":"Phone: undefined / opening days: Ouvert du 17 au 28 avril et du 23 octobre au 3 novembre du lundi au vendredi de 14h à 17h, du 3 au 16 juillet et du 14 août au 3 septembre tous les jours sauf les samedi de 13h30 à 18h, du 17 juillet au 13 août tous les jours sauf sameid et dimanche matin / closing days: Jours fériés sauf 14 juillet et 15 août"},{"title":"Musée Bernadotte","description":"Musée Bernadotte","coordinates":{"lat":43.2974289,"lng":-0.3725182},"address":"8, Rue Tran, 64000, PAU","url":"site de la ville","details":"Phone: undefined / opening days: Ouvert du mardi au dimanche de 10h à 12h et de  14h à 18h / closing days: "},{"title":"Musée des Beaux-Arts Denys Puech","description":"Musée des Beaux-Arts Denys Puech","coordinates":{"lat":44.3488889,"lng":2.5783333},"address":"Place Georges Clemenceau, 12000, RODEZ","url":"http://musee-denys-puech.grand-rodez.com/","details":"Phone: undefined / opening days: Ouvert du mardi au vendredi de 10 h à 12 h et de 14 h à 18 h, samedi et dimanche de 14h à 18h / closing days: 1er janvier, 1er mai, 1er novembre et 25 décembre"},{"title":"Musée Léon Alègre","description":"Musée Léon Alègre","coordinates":{"lat":44.1646303,"lng":4.6213429},"address":"24, avenue Paul Langevin, 30200, BAGNOLS-SUR-CEZE","url":"Site de la ville ou site du conseil général","details":"Phone: undefined / opening days: Ouvert mardi, jeudi et vendredi de 10h à 12h et de 14h à 18h / closing days: Février"},{"title":"Carré d'Art Musée d'Art Contemporain de Nîmes","description":"Carré d'Art Musée d'Art Contemporain de Nîmes","coordinates":{"lat":43.838023,"lng":4.35503},"address":"Place de la Maison Carrée, 30031, NIMES Cedex 1","url":"www.carreartmusee.com","details":"Phone: undefined / opening days: Ouvert du mardi au dimanche de 10h à 18h / closing days: 1er mai, 1er novembre, 25 décembre et 1er janvier"},{"title":"Musée Départemental d'Art Sacré du Gard","description":"Musée Départemental d'Art Sacré du Gard","coordinates":{"lat":44.25520059999999,"lng":4.650926399999999},"address":"Maison des Chevaliers\r\n2, Rue Saint-Jacques, 30130, PONT-SAINT-ESPRIT","url":"http://www.gard-provencal.com/musees/artsacre.htm","details":"Phone: undefined / opening days: Ouvert du mardi au dimanche de 10h à 12h et de 14h à 18h de septembre à juin et en juillet-août de 10h à 12h30 et de 15h à 18h30 / closing days: Jours fériés, février"},{"title":"Musée Paul Raymond","description":"Musée Paul Raymond","coordinates":{"lat":44.25573379999999,"lng":4.6511901},"address":"Place de l'Ancienne Mairie, 30130, PONT-SAINT-ESPRIT","url":"","details":"Phone: undefined / opening days:  / closing days: "},{"title":"Musée Pierre de Luxembourg","description":"Musée Pierre de Luxembourg","coordinates":{"lat":43.9637399,"lng":4.7967932},"address":"3, Rue de la République, 30400, VILLENEUVE-LES-AVIGNON","url":"Site du conseil général","details":"Phone: undefined / opening days: Ouvert de novembre à mai du mardi, jeudi et vendredi, samedi et dimanche de 14h à 17h, le mercredi de 10h à 12h et de 14H à 17h et de mai à octobre du mardi au dimanche de 10h à 12h30 et de 14h à 18H / closing days: Février"},{"title":"Musée des Beaux-Arts et des Arts Décoratifs","description":"Musée des Beaux-Arts et des Arts Décoratifs","coordinates":{"lat":43.5152464,"lng":0.4034253},"address":"13, rue de l'Evêché, 32300, MIRANDE","url":"site du département : www.gers-gascogne.com","details":"Phone: undefined / opening days: Ouvert du lundi au vendredi de 9h à 12h et de 14h à 18h, le samedi de 10h à 12h et de 15h à 18h, et le dimanche de 10h à 12h en juillet août / closing days: Jours fériés"},{"title":"Musée Fabre","description":"Musée Fabre","coordinates":{"lat":43.6110216,"lng":3.879425799999999},"address":"13, rue Montpellieret, 34000, MONTPELLIER","url":"www.museefabre.montpellier3m.fr","details":"Phone: undefined / opening days: Ouvert du mardi au dimanche de 10h à 18h (19h pendant exposition d'été) pour le bâtiment principal\r\nl'Hôtel Cabrières-Sabatier d'Espeyran le mardi, samedi, dimanche de 14h à 17h et pendant les 16 semaines d'exposition estivale du mardi au dimanche de 14h  / closing days: 1er janvier, 1er mai, 1er & 11 novembre, 25 décembre"},{"title":"Musée de Préhistoire Régionale et du Mégalithisme","description":"Musée de Préhistoire Régionale et du Mégalithisme","coordinates":{"lat":43.4887587,"lng":2.7586573},"address":"8, Grand'Rue, 34220, SAINT-PONS-DE-THOMIERES","url":"http://www.pays-saintponais.com/site/dossier_musee/index.html","details":"Phone: undefined / opening days: Ouvert des vacances de Pâques à fin juin de mi-septembre à fin septembre vacances de Toussaint du jeudi au dimanche de 15h à 18h, de juillet à mi-septembre du mardi au dimanche de 10h à 12h et de 15h à  18h / closing days: Fermeture annuelle de novembre à mars"},{"title":"Musée Archéologique de Ruscino","description":"Musée Archéologique de Ruscino","coordinates":{"lat":42.7079562,"lng":2.9458801},"address":"Château Roussillon, 66000, PERPIGNAN","url":"","details":"Phone: undefined / opening days:  / closing days: "},{"title":"Musée du Pays Rabastinois","description":"Musée du Pays Rabastinois","coordinates":{"lat":43.8204372,"lng":1.7248257},"address":"Hôtel de La Fite\r\n2, Rue Amédée Clausade, 81800, RABASTENS","url":"Site de la région : www.musees-midi-pyrenees.fr/musees/musee-du-pays-rabastinois","details":"Phone: undefined / opening days: Ouvert du mardi au vendredi de 10h à 12h et de 14h à 18h, samedi, dimanche et jours fériés de 14h à 18h / closing days: Décembre"},{"title":"Musée Jules-Desbois","description":"Musée Jules-Desbois","coordinates":{"lat":47.436643,"lng":0.159735},"address":"1, Place Jules-Desbois, 49390, PARCAY-LES-PINS","url":"www.musee-julesdesbois.fr ou www.damm49.fr","details":"Phone: undefined / opening days: Ouvert du 2 au 17 avril du mardi au dimanche de 14h0 à 18h, du 18 avril au 18 juin week-ends et jours fériés de 14h30 à 18h, du 18 juin au 18 septembre du mardi au dimanche de 10h30 à 12h30 et de 14h30 à 18h, du 19 septembre au 18 octobre week-ends et jou / closing days: 3 novembre au 1er avril"},{"title":"Musée d'Art et d'Archéologie Hôtel Fouquet","description":"Musée d'Art et d'Archéologie Hôtel Fouquet","coordinates":{"lat":47.8289689,"lng":-0.7049092},"address":"2, Rue Jean Bourré, 53200, CHATEAU-GONTIER","url":"http://patrimoine.chateaugontier.fr/","details":"Phone: undefined / opening days: Ouvert  du mercredi au dimanche de 15h à 18h de la nuit des musées aux JEP. Ouvert toute l'année pour les groupes et individuels sur réservation / closing days: "},{"title":"Musée du Vieux Château","description":"Musée du Vieux Château","coordinates":{"lat":48.0684357,"lng":-0.7706419},"address":"Place de la Trémoille, 53000, LAVAL","url":"http://laval.fr/musees/musee-du-vieux-château ou http://musees.laval.fr/","details":"Phone: undefined / opening days: Ouvert du 1er octobre au 31 mai du mardi au samedi de 9h30 à 12h et de 13h30 à 17h30, les dimanches de 14h à 18h, du 1er juin au 30 septembre du mardi au samedi de 9h30 à12h et de 13h30 à 18h30, les dimanches, 14 juillet et 15 août de 14h à 18h / closing days: 1er janvier, dimanhces de Pâques et de Pentecôte, 1er mai, 8 mai, Ascension, 1er novembre, 11 novembre et 25 décembre"},{"title":"Ecomusée du Marais Breton Vendéen","description":"Ecomusée du Marais Breton Vendéen","coordinates":{"lat":46.8741052,"lng":-2.1037063},"address":"Le Daviaud, 85550, LA BARRE-DE-MONTS","url":"www.ecomusee-ledaviaud.com","details":"Phone: undefined / opening days: Ouvert de mars à mai du mercredi au dimanchei de 14h à 18h ,mai, juin et septembre ouvert du mercredi au dimanche de 14h à 18h30. Juillet-août tlj de 10h à 19h30 le samedi de 14h à 19h30 / closing days: 11 novembre"},{"title":"Historial et Mémorial de la Vendée","description":"Historial et Mémorial de la Vendée","coordinates":{"lat":46.845768,"lng":-1.481432},"address":", 85170, LES LUCS-SUR-BOULOGNE","url":"www.historial.vendee.fr","details":"Phone: undefined / opening days: Ouvert du mardi au dimanche de 10h à 19h du 1er avril au 30 juin et en septembre, et en juillet-août tous les jours de 10h à 19h, et du mardi au dimanche de 10h à 18h du 1er octobre au 31 mars / closing days: 25 décembre, 1er janvier"},{"title":"Musée Municipal","description":"Musée Municipal","coordinates":{"lat":43.96008270000001,"lng":5.7807556},"address":"1, Place du Bourguet, 04300, FORCALQUIER","url":"www.ville-forcalquier.fr/service-culturel.html","details":"Phone: undefined / opening days: Ouvert de juillet au JEP le lundi de 10h à 12h et du mercredi au vendredi de 15h à 18h. Visite guidée le mercredi à 16h / closing days: Jours fériés et du 19 septembre 2017 au 2 juillet 2018"},{"title":"Musée de la Faïence","description":"Musée de la Faïence","coordinates":{"lat":43.84598940000001,"lng":6.2214308},